Name,Categories,Address,City,State,Postcode,Phone,Fax,Latitude,Longitude,Employees,Established,ABN_Status,ABN,ABN_Name,Accuracy,ABN_2,ACN
York Street Early Education,Child Care Centres,31 York St,Indooroopilly,QLD,4068,(07) 3371 0106,,-27.495456,152.977134,,,Active,42 618 983 869,Entity Name,25%,,
YMCA Outside School Hours Care,Child Care Centres,95 Hudson Rd,Bunbury,WA,6230,(08) 9795 4004,,-33.365733,115.636625,,,Active,75 092 818 445,Business Name,25%,,
YMCA Outside School Hours Care,Child Care Centres,Cnr Beach Rd and Mirrabooka Ave,Mirrabooka,WA,6061,0407 048 758,,-31.848552,115.85534,,,Active,75 092 818 445,Business Name,25%,,
YMCA Outside School Hours Care,Child Care Centres,Neerabup Primary School Viridian Dr,Neerabup,WA,6031,0403 347 946,,-31.699534,115.809782,,,Active,75 092 818 445,Business Name,25%,,
YMCA Outside School Hours Care,Child Care Centres,Kinross Primary School Kinross Dr,Kinross,WA,6028,0403 347 954,,-31.7188,115.73679,,,Active,75 092 818 445,Business Name,25%,,
YMCA Outside School Hours Care,Child Care Centres,Kingsley Club Rooms Kingsley Dr,Kingsley,WA,6026,0403 347 949,,-31.818973,115.788971,,,Active,75 092 818 445,Business Name,25%,,
YMCA Outside School Hours Care,Child Care Centres,183 Jersey St,Wembley,WA,6014,0403 347 948,,-31.937059,115.811271,,,Active,75 092 818 445,Business Name,25%,,
YMCA Outside School Hours Care,Child Care Centres,85 Springfield Lakes Blv,Springfield Lakes,QLD,4300,(07) 3818 3741,,-27.67523,152.916524,,,Active,75 092 818 445,Business Name,25%,,
YMCA Outside School Hours Care,Child Care Centres,Stuart St,Goodna,QLD,4300,(07) 3381 0529,,-27.613161,152.887025,,,Active,75 092 818 445,Business Name,25%,,
YMCA Outside School Hours Care,Child Care Centres,Old Logan Rd,Camira,QLD,4300,(07) 3288 2488,,-27.613688,152.916117,,,Active,75 092 818 445,Business Name,25%,,
YMCA Outside School Hours Care,Child Care Centres,1020 Waterworks Rd,The Gap,QLD,4061,(07) 3300 4792,,-27.444961,152.949586,,,Active,75 092 818 445,Business Name,25%,,
YMCA Outside School Hours Care,Child Care Centres,Glory St,Ashgrove,QLD,4060,(07) 3366 1523,,-27.448226,152.978029,,,Active,75 092 818 445,Business Name,25%,,
YMCA Outside School Hours Care,Child Care Centres,200 Dawson Parade,Grovely,QLD,4054,(07) 3855 9997,,-27.401599,152.959656,,,Active,75 092 818 445,Business Name,25%,,
YMCA Outside School Hours Care,Child Care Centres,Lecke St,Kedron,QLD,4031,(07) 3350 5333,,-27.4069227,153.0326193,,,Active,75 092 818 445,Business Name,25%,,
YMCA Outside School Hours Care,Child Care Centres,1678 Sandgate Rd,Virginia,QLD,4014,(07) 3266 3159,,-27.383005,153.062374,,,Active,75 092 818 445,Business Name,25%,,
Yankalilla Community Childrens Centre,Child Care Centres,208- 210 Main South Rd,Yankalilla,SA,5203,(08) 8558 2387,,-35.45389,138.33207,,,Active,72 289 769 629,Entity Name,25%,59 834 374 934,
World of Learning,Child Care Centres,57 Salisbury Crst,Colonel Light Gardens,SA,5041,(08) 8272 9399,,-34.978603,138.598557,,,Active,63 123 390 572,Entity Name,25%,,
Woodville Day Nursery & Kindergarten,Child Care Centres,78 Findon Rd,Woodville West,SA,5011,(08) 8445 9869,,-34.88526,138.53078,Nov-20,1962,Active,53 535 135 905,Trading Name,25%,,
Woodleigh Loxton District Children's Centre,Child Care Centres,11 Tobruk Tce,Loxton,SA,5333,(08) 8584 6501,,-34.457422,140.573053,,,Active,13 216 839 961,Trading Name,25%,13 216 839 961,
Woodend Primary School OSHC/Vac,Child Care Centres,0 Edward Beck Dr,Sheidow Park,SA,5158,(08) 8322 8291,,-35.0795,138.53585,,,Active,93 906 726 689,Entity Name,25%,,
Wongan Cubbyhouse,Child Care Centres,3 Stickland St,Wongan Hills,WA,6603,(08) 9671 1811,,-30.890359,116.718139,,,Active,51 179 890 292,Entity Name,25%,,
Wilston State School Outside School Hours Care,Child Care Centres,Primrose St,Grange,QLD,4051,(07) 3352 6753,,-27.428793,153.013505,,,Active,22 187 738 662,Entity Name,25%,,
Willoughby Kids House,Child Care Centres,31 Penshurst St,Willoughby,NSW,2068,(02) 9958 0913,,-33.80246,151.19872,,,Active,51 506 392 042,Entity Name,25%,,
Whyalla Road Safety Centre Inc,Child Care Centres,Billing St,Whyalla Playford,SA,5600,(08) 8644 0070,,-33.033738,137.55838,,,Active,80 602 845 703,Entity Name,25%,,
Whitsunday Shire Family Day Care,Child Care Centres,18B Chapman St,Proserpine,QLD,4800,(07) 4945 2422,,-20.40088,148.583,,,Active,39 485 148 334,Entity Name,25%,,
Westminster Early Learning Centre,Child Care Centres,46388 Alison Ave,Marion,SA,5043,(08) 8276 0293,,-35.00325,138.553746,,,Active,37 276 356 812,Business Name,25%,,
West Hawthorn Early Childhood Centre,Child Care Centres,63 Church,Hawthorn,VIC,3122,(03) 9818 0670,,-37.815416,145.02161,,,Active,42 780 878 985,Entity Name,25%,,
Wattle Glen Primary School - After School Care,Child Care Centres,Cnr Reynolds Rd and Sunnyside Crs,Wattle Glen,VIC,3096,(03) 9438 5117,,-37.669192,145.183105,,,Active,56 707 623 188,Entity Name,25%,,
Wattle Glen Primary,Child Care Centres,Cnr Reynolds Rd and Sunnyside Crs,Wattle Glen,VIC,3096,(03) 9438 1259,,-37.669192,145.183105,,,Active,56 707 623 188,Entity Name,25%,,
Warradale Community Children's Centre,Child Care Centres,1A Duncan Ave,Park Holme,SA,5043,(08) 8277 0530,,-34.991124,138.556381,,,Active,29 921 783 854,Entity Name,25%,29 921 783 854,
Wanslea Family Services Inc,Child Care Centres,37A Walmsley St,Esperance,WA,6450,(08) 9843 0077,,-33.833332,121.915147,,,Active,36 660 171 727,Trading Name,25%,,
Wanslea Family Services Inc,Child Care Centres,1 Marmion St,Mt Barker,WA,6324,(08) 9898 5585,,-34.62382,117.65389,,,Active,36 660 171 727,Trading Name,25%,,
Wanslea Early Learning and Development,Child Care Centres,44 McCombe Ave,Samson,WA,6163,(08) 6143 5383,,-32.071685,115.800733,,,Active,35 530 687 121,Entity Name,25%,,
Wanslea Early Learning and Development,Child Care Centres,70 Jenkin St,Beaconsfield,WA,6162,(08) 6143 5381,,-32.068307,115.758907,,,Active,35 530 687 121,Entity Name,25%,,
Walkerville Primary School OSHC/Vac,Child Care Centres,159 Stephen Tce,Walkerville,SA,5081,(08) 8344 1261,,-34.894732,138.612118,,,Active,82 009 652 812,Entity Name,25%,,
Waikerie Primary School OSHC/Vac,Child Care Centres,23 Coombe Tce,Waikerie,SA,5330,0419 845 451,,-34.181138,139.981008,,,Active,50 915 844 537,Entity Name,25%,,
Waikerie Childrens Centre Inc,Child Care Centres,16 Marks Tce,Waikerie,SA,5330,(08) 8541 2692,,-34.178082,139.978863,,,Active,44 742 319 209,Entity Name,25%,,
Village Kids Childrens Centre,Child Care Centres,56 Bergin Rd,Cranbrook,QLD,4814,(07) 4729 4444,,-19.307931,146.756231,,,Active,98 604 704 949,Entity Name,25%,,
Village Child Care Centre,Child Care Centres,17 Mclachlan Ave,Mudgeeraba,QLD,4213,(07) 5522 7177,(07) 5522 7577,-28.082662,153.35635,,,Active,38 114 234 150,Entity Name,25%,,
Vale Park Primary School OSHC/Vac,Child Care Centres,40-56 Ascot Ave,Vale Park,SA,5081,(08) 8266 0439,,-34.885311,138.626594,,,Active,34 520 137 131,Entity Name,25%,,
Vacca,Child Care Centres,Level 2 1-7 Langhorne St,Dandenong,VIC,3175,(03) 9108 3500,,-37.986459,145.215233,,,Active,87 493 656 903,Entity Name,25%,,
Upper Macleay Pre-School,Child Care Centres,77 Main St,Willawarrin,NSW,2440,(02) 6567 1491,,-30.926335,152.625877,,,Active,49 686 205 639,Entity Name,25%,,
Upper Beaconsfield Community Centre Creche,Child Care Centres,10- 12 Salisbury Rd,Beaconsfield Upper,VIC,3808,(03) 5944 3484,,-38.00501,145.41163,,,Active,86 016 259 616,Entity Name,25%,,
Uniting Church Childcare Centre,Child Care Centres,,Gympie,QLD,4570,(07) 5482 2186,(07) 5483 2537,-26.1904157,152.6658377,,,Active,58 809 015 757,Entity Name,25%,13 276 995 038,
Unique Unicorns,Child Care Centres,16 Blackhawk Blv,Thuringowa Central,QLD,4817,(07) 4723 3735,,-19.321514,146.71985,,,Active,86 104 355 286,Business Name,25%,,
Treetops Early Learning Centres,Child Care Centres,Ground Floor 84 North Tce,Kent Town,SA,5067,(08) 8100 3900,,-34.916479,138.621919,,,Active,38 125 616 793,Entity Name,25%,,
Tree House Child Care,Child Care Centres,53 Church St,Geelong West,VIC,3218,(03) 5277 0204,,-38.132157,144.345966,,,Active,89 893 634 874,Other Name,25%,,
Tree House Child Care,Child Care Centres,418 Murray Rd,Preston,VIC,3072,(03) 9471 1115,,-37.736891,144.997288,,,Active,89 893 634 874,Other Name,25%,,
Treasured Tots Child Care,Child Care Centres,69 Hampton Rd,Fremantle,WA,6160,(08) 6219 5465,,-32.060293,115.755899,,,Active,76 147 554 194,Entity Name,25%,,
Treasure Island Child Care Centre,Child Care Centres,30 Cecil Ave,Cannington,WA,6107,(08) 9451 9451,,-32.015195,115.938796,,,Active,45 425 975 350,Entity Name,25%,,
ToyBox International,Child Care Centres,Level 1 9 Frobisher St,Osborne Park,WA,6017,(08) 9380 9733,,-31.912737,115.819064,,,Active,58 674 539 061,Entity Name,25%,,
Townsville Children's Day Centre Association,Child Care Centres,23 Kennedy St,North Ward,QLD,4810,(07) 4771 3893,,-19.250988,146.81066,,,Active,75 352 567 431,Trading Name,25%,,
Townsville Babysitters,Child Care Centres,,Townsville,QLD,4810,0417 774 564,,-19.2576223,146.8178787,,,Active,75 352 567 431,Trading Name,25%,,
Totom House,Child Care Centres,Cnr Maribyrnong Ave and Georgina Crs,Kaleen,ACT,2617,(02) 6241 5672,,-35.219251,149.103478,,,Active,59 189 348 557,Entity Name,25%,,
Torrens Road Community Child Care Centre Caboolture,Child Care Centres,10A Torrens Rd,Caboolture,QLD,4510,(07) 5495 6277,,-27.097168,152.947544,,,Active,14 058 693 514,Trading Name,25%,,
Top End Early Learning Centre Inc,Child Care Centres,"R D H Campus, Rocklands Drive,",Tiwi,NT,810,(08) 8927 9259,,-12.362884,130.873239,,,Active,49 025 477 153,Entity Name,25%,,
Tiny Tiger Early Learning Centre,Child Care Centres,18 Pine St,Runcorn,QLD,4113,(07) 3841 0633,,-27.59351,153.07949,,,Active,46 146 729 053,Entity Name,25%,,
Timber Tots Child Care,Child Care Centres,Mount St,Manjimup,WA,6258,(08) 9777 2044,,-34.241526,116.146384,,,Active,34 164 960 927,Entity Name,25%,,
Tilbrook Child Care Centre,Child Care Centres,56 Hampton St South,Goodwood,SA,5034,(08) 8272 8480,,-34.951702,138.587998,,,Active,43 809 513 630,Entity Name,25%,,
Tilbrook Child Care Centre,Child Care Centres,56 Hampton St,Goodwood,SA,5034,(08) 8272 8480,,-34.951702,138.587998,,,Active,43 809 513 630,Entity Name,25%,,
Through Road Child Care Association Inc,Child Care Centres,171 Through Rd,Camberwell,VIC,3124,(03) 9830 4643,,-37.836377,145.093545,,,Active,19 346 712 348,Entity Name,25%,,
The Pines Community Children's Centre,Child Care Centres,14 Hemming St,Parafield Gardens,SA,5107,(08) 8250 7010,,-34.772946,138.608604,,,Active,16 597 502 375,Entity Name,25%,,
The Park School For Early Learning,Child Care Centres,37 Brindabella Cct,Canberra Airport,ACT,2609,(02) 6161 9331,,-35.311138,149.187726,,,Active,99 070 946 922,Business Name,25%,,
The Merrell Kindergarten,Child Care Centres,92 Maud St,Balwyn North,VIC,3104,(03) 9859 1259,,-37.795972,145.075691,,,Active,88 653 361 259,Entity Name,25%,,
The Kidz X-Press,Child Care Centres,"Cnr Queen and Waterloo Sts, 149 Queen Street,",Cleveland,QLD,4163,(07) 3821 3511,(07) 3821 2094,-27.527832,153.264621,1-Oct,1995,Active,19 062 373 906,Business Name,25%,19 062 373 906,
The Imagination Play Station,Child Care Centres,60 Burdekin Avenue,Amaroo,ACT,2914,(02) 6121 4507,,-35.168261,149.123463,21-50,,Active,73 340 950 909,Trading Name,25%,73 340 950 909,
The Gums Childcare Centre,Child Care Centres,Lot 11 Maynard Rd,Clare,SA,5453,(08) 8842 1249,,-33.850837,138.621023,,,Active,24 114 059 639,Entity Name,25%,,
The Gowrie (Qld) Inc,Child Care Centres,228 St Pauls Tce,Fortitude Valley,QLD,4006,(07) 3257 7949,,-27.457745,153.029357,,1940,Active,12 226 452 826,Entity Name,25%,,
The Essington Early Childhood Centre,Child Care Centres,31 Cummins St,Rapid Creek,NT,810,(08) 8985 3861,(08) 8948 1901,-12.385099,130.858507,,,Active,33 105 568 018,Entity Name,25%,,
The Brook Early Education and Care,Child Care Centres,19 Suez St,Gordon Park,QLD,4031,(07) 3357 2332,,-27.413873,153.033781,,,Active,38 610 447 526,Entity Name,25%,,
Territory Child Care Group,Child Care Centres,1/10 Mel Rd,Berrimah,NT,828,(08) 8920 0600,(08) 8920 0622,-12.440832,130.919891,,1977,Active,83 691 439 029,Entity Name,25%,83 691 439 029,
Territory Child Care Group,Child Care Centres,,Casuarina,NT,812,(08) 8920 0600,(08) 8920 0622,-12.3756503,130.8822128,,,Active,83 691 439 029,Entity Name,25%,,
Tenison Woods College Early Learning & Community Centre,Child Care Centres,Cnr Shepherdson Rd and White Ave,Mt Gambier,SA,5290,(08) 8724 4656,,-37.827229,140.754571,,,Active,25 508 850 572,Entity Name,25%,,
Tasmanian Regional Arts,Child Care Centres,George St,Latrobe,TAS,7307,(03) 6426 2344,,-41.236672,146.419328,,,Active,24 292 916 836,Entity Name,25%,,
Tailem Bend Kindergarten Occasional Care Programs,Child Care Centres,49 Trevena Rd,Tailem Bend,SA,5260,(08) 8572 3348,,-35.252388,139.456847,,,Active,70 487 361 226,Entity Name,25%,,
Taigum Kids Early Learning Centre,Child Care Centres,263 Handford Rd,Taigum,QLD,4018,(07) 3865 8234,,-27.347737,153.042022,,2007,Active,32 687 945 788,Business Name,25%,,
Tadpoles Early Learning Centres,Child Care Centres,10 Main St,Narangba,QLD,4504,(07) 3886 6578,,-27.20459,152.96122,,,Active,37 163 864 195,Business Name,25%,,
Tadpoles Early Learning Centres,Child Care Centres,215 Church Rd,Taigum,QLD,4018,(07) 3865 2677,,-27.349859,153.046371,,,Active,37 163 864 195,Business Name,25%,,
Swan Hill Christian Centre,Child Care Centres,Murray Valley Hwy,Swan Hill,VIC,3585,(03) 5032 4107,,-35.330724,143.554777,,,Active,72 534 746 143,Entity Name,25%,,
Surrey Downs Community Childrens Centre,Child Care Centres,76 Illyarrie Ave,Surrey Downs,SA,5126,(08) 8289 0100,,-34.80158,138.710466,,,Active,43 069 786 826,Entity Name,25%,,
SuperKidz,Child Care Centres,10 Mead Pl,Calamvale,QLD,4116,0400 525 867,,-27.619797,153.035563,,,Active,52 642 416 810,Business Name,25%,,
Sunshine Special Developmental S,Child Care Centres,Mailey St,Sunshine West,VIC,3020,(03) 9311 1393,,-37.791844,144.815555,,,Active,74 157 241 288,Entity Name,25%,,
Sunnybank Child Care Centre,Child Care Centres,357 Beenleigh Rd,Sunnybank,QLD,4109,1300 783 880,,-27.58158,153.04742,,,Active,77 656 171 700,Entity Name,25%,,
Sunny Hills Child Care & Education Centres,Child Care Centres,101 Borella Rd,Sunnybank Hills,QLD,4109,(07) 3345 5500,,-27.594534,153.054219,,,Active,40 531 089 821,Trading Name,25%,,
Sunny Hills Child Care & Education Centres,Child Care Centres,116 Borella Rd,Sunnybank Hills,QLD,4109,(07) 3344 6111,,-27.593516,153.053894,,,Active,40 531 089 821,Trading Name,25%,,
Sunkids,Child Care Centres,7 Leonard St,Yamanto,QLD,4305,(07) 3288 0044,,-27.657027,152.746459,,,Active,14 603 413 378,Entity Name,25%,,
Sunkids,Child Care Centres,22 Bourton Rd,Merrimac,QLD,4226,(07) 5522 7441,,-28.05196,153.36,,,Active,14 603 413 378,Entity Name,25%,,
Sunkids,Child Care Centres,8 Executive Dr,Burleigh Waters,QLD,4220,(07) 5522 1556,,-28.09881,153.42285,,,Active,14 603 413 378,Entity Name,25%,,
Sunkids,Child Care Centres,Lot 2 Gemvale Rd,Mudgeeraba,QLD,4213,(07) 5559 2311,,-28.099942,153.400221,,,Active,14 603 413 378,Entity Name,25%,,
Sunkids,Child Care Centres,70 Wellington St,Ormiston,QLD,4160,(07) 3286 2900,,-27.51678,153.25594,,,Active,14 603 413 378,Entity Name,25%,,
Sunkids,Child Care Centres,184 Springwood Rd,Springwood,QLD,4127,(07) 3808 9100,,-27.61064,153.13488,,,Active,14 603 413 378,Entity Name,25%,,
Sunkids,Child Care Centres,48-54 Middle Rd,Hillcrest,QLD,4118,(07) 3800 4444,,-27.67557,153.02705,,,Active,14 603 413 378,Entity Name,25%,,
Sunkids,Child Care Centres,161 Muller Rd,Boondall,QLD,4034,(07) 3265 6130,,-27.34916,153.05356,,,Active,14 603 413 378,Entity Name,25%,,
Sunkids,Child Care Centres,466 Sayers Rd,Tarneit,VIC,3029,(03) 9749 1488,,-37.84912,144.69899,,,Active,14 603 413 378,Entity Name,25%,,
Stepping Stones,Child Care Centres,22 Wormald St,Symonston,ACT,2609,(02) 6228 1544,,-35.335654,149.164918,,2006,Active,99 008 421 305,Entity Name,25%,,
St Pius X OSHC/Vac,Child Care Centres,8 Windsor Gr,Windsor Gardens,SA,5087,(08) 8369 1489,,-34.868649,138.643112,,,Active,58 678 038 374,Trading Name,25%,,
St Paul & St Anthony Child Care Centre,Child Care Centres,23 Crossland St,Merrylands,NSW,2160,(02) 9681 6124,,-33.847259,151.003305,,,Active,26 077 282 814,Entity Name,25%,,
St Patricks Villa,Child Care Centres,Carlton Hill Rd,Gympie,QLD,4570,(07) 5482 9144,,-26.195461,152.674237,,,Active,53 932 663 240,Entity Name,25%,,
St Morris Community Child Care Centre,Child Care Centres,64 Gage St,St Morris,SA,5068,(08) 8332 3999,,-34.909334,138.651465,,,Active,52 184 968 505,Entity Name,25%,,
St Mel's Outside School Hours,Child Care Centres,35 Hamilton St,Shepparton,VIC,3630,0438 213 163,,-36.391807,145.409832,,,Active,71 713 675 937,Entity Name,25%,,
St Linus' Anglican Kindergarten,Child Care Centres,13 Delta Ave,Merlynston,VIC,3058,(03) 9354 6276,,-37.721599,144.959351,,,Active,18 634 634 107,Entity Name,25%,,
St David's Parish School Care,Child Care Centres,0 Milne Rd,Tea Tree Gully,SA,5091,(08) 8360 6330,,-34.816214,138.725414,,,Active,35 121 562 244,Entity Name,25%,,
St Columba College OSHC/Vac,Child Care Centres,0 President Ave,Andrews Farm,SA,5114,(08) 8254 0600,,-34.670415,138.666319,,,Active,40 836 371 602,Trading Name,25%,,
St Albans East Preschool,Child Care Centres,"Cnr Harmon and Station Avenues,",St Albans,VIC,3021,(03) 9366 4830,,-37.743143,144.817145,,,Active,93 568 231 065,Entity Name,25%,,
Spring bay Child Care Centre,Child Care Centres,36 Melbourne St,Triabunna,TAS,7190,(03) 6257 3598,,-42.504792,147.911809,,,Active,53 669 199 388,Entity Name,25%,,
Spraoi Child Care,Child Care Centres,110 Wilson St,Burnie,TAS,7320,(03) 6431 8242,,-41.05478,145.90559,1-Oct,2010,Active,43 146 596 205,Entity Name,25%,,
Sparrow Group Management,Child Care Centres,2/ 44 Borthwick Ave,Murarrie,QLD,4172,(07) 3395 5555,,-27.454121,153.104713,,,Active,14 602 534 976,Entity Name,25%,,
Sparrow Early Learning,Child Care Centres,53 Bestmann Rd East,Sandstone Point,QLD,4511,(07) 5429 5768,,-27.078053,153.138821,,,Active,29 600 354 443,Entity Name,25%,,
Southside Family Day Care,Child Care Centres,Boolimba Crst,Narrabundah,ACT,2604,(02) 6295 9487,,-35.332034,149.152225,,,Active,71 808 410 271,Business Name,25%,,
Southern Barossa Community Child Care Inc,Child Care Centres,Lot 1/ Lyndoch Valley Rd,Lyndoch,SA,5351,,,-34.60167,138.89136,,2008,Active,97 350 031 619,Entity Name,25%,,
Southern Barossa Community Child Care,Child Care Centres,200 Lyndoch Valley Rd,Lyndoch,SA,5351,(08) 8524 5395,,-34.619466,138.892996,,,Active,97 350 031 619,Entity Name,25%,,
South Lake Child Care Centre,Child Care Centres,2 South Lake Dr,South Lake,WA,6164,(08) 9417 7080,(08) 9417 7994,-32.110533,115.838489,Nov-20,1988,Active,72 098 540 132,Trading Name,25%,,
Smarties Early Learning Centre,Child Care Centres,10 Lawrence St,Peakhurst,NSW,2210,(02) 8515 0888,,-33.958605,151.054437,,,Active,28 604 410 924,Entity Name,25%,,
Smarter Kids,Child Care Centres,17 Cobai Dr,Mudgeeraba,QLD,4213,(07) 5530 5563,,-28.079237,153.363284,,,Active,90 103 487 805,Business Name,25%,,
Sebastopol Community Centre,Child Care Centres,Yarrowee St,Sebastopol,VIC,3356,(03) 5335 8354,,-37.598828,143.83673,,,Active,41 881 249 677,Entity Name,25%,,
Seaton Community Childrens Centre Inc,Child Care Centres,37 Glenburnie St,Seaton,SA,5023,(08) 8347 1839,(08) 8244 9660,-34.885083,138.508294,Nov-20,,Active,80 717 548 674,Entity Name,25%,80 717 548 674,
SEATON COMMUNITY CHILDRENS CENTRE,Child Care Centres,Seaton Child Care 37 Glenburnie St,Seaton,SA,5023,(08) 8347 1839,,-34.885083,138.508294,,,Active,80 717 548 674,Entity Name,25%,,
Seaholme Kindergarten,Child Care Centres,2 Parkside Crst,Seaholme,VIC,3018,(03) 9398 1216,,-37.865724,144.844288,,,Active,41 283 510 809,Entity Name,25%,,
SDN Children's Services Inc,Child Care Centres,44 College St,Belconnen,ACT,2617,(02) 6253 2332,,-35.242674,149.072144,,,Active,23 000 014 335,DGR Name,25%,,
SDN Children's Services Inc,Child Care Centres,1 Melaleuca Crst,Catalina,NSW,2536,(02) 4472 4490,,-35.73418,150.19349,,,Active,23 000 014 335,DGR Name,25%,,
SDN Children's Services Inc,Child Care Centres,3 Lintherpe St,Newtown,NSW,2042,(02) 9557 3121,,-33.897271,151.181338,,,Active,23 000 014 335,DGR Name,25%,,
Scottsdale Child Care Centre,Child Care Centres,Mary St,Scottsdale,TAS,7260,(03) 6352 4484,,-41.163454,147.508809,,,Active,97 657 433 721,Other Name,25%,,
Samantha's Child Care Centre & Kindergarten,Child Care Centres,190 Burke Rd,Glen Iris,VIC,3146,(03) 9885 6474,,-37.85963,145.05175,,,Active,68 079 009 091,Business Name,25%,,
SA Little Athletics Association,Child Care Centres,Railway Tce,Mile End,SA,5031,(08) 8352 8133,,-34.927461,138.577263,,,Active,98 488 530 830,Trading Name,25%,,
Rossi Child Care Centre,Child Care Centres,"252 Beechboro Road North,",Morley,WA,6062,(08) 9279 4955,,-31.89421,115.92465,,,Active,61 122 972 614,Entity Name,25%,,
Rosemont House Montessori,Child Care Centres,59 Kensington Rd,Norwood,SA,5067,(08) 8331 4020,,-34.927268,138.628353,,,Active,88 600 967 575,Entity Name,25%,,
Rosanna Fire Station Community House,Child Care Centres,232 Lower Plenty Rd,Rosanna,VIC,3084,(03) 9458 1935,,-37.738564,145.072553,,,Active,55 460 279 116,Entity Name,25%,,
Robina Town Child Care Centre,Child Care Centres,39 Thorngate Dr,Robina,QLD,4226,(07) 5578 7453,,-28.069248,153.391266,,,Active,98 164 222 888,Business Name,25%,,
Risdon Vale Neighbourhood Centre,Child Care Centres,28 Sugarloaf Rd,Risdon Vale,TAS,7016,(03) 6243 5752,,-42.812314,147.351515,,,Active,33 320 413 752,Entity Name,25%,,
Ridgehaven Primary School OSHC/Vac,Child Care Centres,0 Milne Rd,Ridgehaven,SA,5097,(08) 8396 3327,,-34.816433,138.710771,,,Active,91 409 107 425,Entity Name,25%,,
Richmond Multicultural Children's Centre,Child Care Centres,16 Gleadell St,Richmond,VIC,3121,(03) 9428 6537,,-37.817488,145.001707,,,Active,75 760 398 872,Entity Name,25%,,
Research Primary School Aged Care,Child Care Centres,Main Rd,Research,VIC,3095,(03) 9437 1967,,-37.701567,145.186645,,,Active,73 849 976 698,Entity Name,25%,,
Reid Early Childhood Centre,Child Care Centres,27 Amaroo St,Reid,ACT,2612,,,-35.285925,149.137638,,,Active,23 176 580 350,Entity Name,25%,,
Rangeville State School After,Child Care Centres,32 High St,Rangeville,QLD,4350,(07) 4635 0061,,-27.583374,151.979949,,,Active,26 788 213 388,Entity Name,25%,,
Rainbow Town Child Care Centre,Child Care Centres,186 Robina Town Centre Dr,Robina,QLD,4226,(07) 5578 7444,,-28.077401,153.382335,,1997,Active,42 899 504 069,Entity Name,25%,,
Rainbow Cottage Early Childhood Centre,Child Care Centres,29 Rae St,Belconnen,ACT,2617,(02) 6251 6608,(02) 6251 6608,-35.236432,149.062,,,Active,55 084 714 629,Entity Name,25%,,
QCWA,Child Care Centres,Victoria St,Stanthorpe,QLD,4380,(07) 4681 1661,,-28.656745,151.933951,,,Active,63 158 535 970,Trading Name,25%,,
Puppet Pals Genuine Multicultural Resources,Child Care Centres,2 Kendall Cl,Templestowe,VIC,3106,(03) 9846 4258,,-37.763217,145.157372,,,Active,63 995 216 096,Business Name,25%,,
Prince Alfred College Early Lrng Ctr,Child Care Centres,0 Pirie St,Kent Town,SA,5067,(08) 8334 1258,,-34.922814,138.620106,,,Active,23 539 290 973,Entity Name,25%,,
Preschool Centre,Child Care Centres,35 Sherwood Rd,Mt Waverley,VIC,3149,(03) 9807 2167,,-37.878838,145.127613,,,Active,30 275 694 319,Trading Name,25%,,
Precious Cargo,Child Care Centres,,Harrogate,SA,5244,(08) 8130 6699,,-34.9508426,139.0152917,,,Active,92 624 905 022,Entity Name,25%,,
Precious Cargo,Child Care Centres,3 Fisher St,Myrtle Bank,SA,5064,(08) 8130 6699,,-34.956829,138.637521,,,Active,92 624 905 022,Entity Name,25%,,
Possum Magic Day Care Centre,Child Care Centres,27 Astrolabe St,Red Hill,ACT,2603,(02) 6239 4863,,-35.337588,149.132219,1-Oct,1989,Active,69 099 417 062,Trading Name,25%,,
Port Sorell Primary,Child Care Centres,,Port Sorell,TAS,7307,0429 110 333,,-41.1665511,146.5484231,,,Active,53 742 622 762,Entity Name,25%,,
Port Community Arts Centre,Child Care Centres,66 Commercial Rd,Port Adelaide,SA,5015,(08) 8341 2430,,-34.844139,138.504776,,,Active,56 424 967 705,Entity Name,25%,,
Play's Kool,Child Care Centres,82 Brookdale St,Floreat,WA,6014,(08) 9383 7393,,-31.945965,115.792182,,,Active,80 116 926 238,Trading Name,25%,,
Pinocchio Early Learning Centre,Child Care Centres,9 Rosevear Pl,Dickson,ACT,2602,(02) 6162 1131,,-35.250075,149.144176,,,Active,73 127 385 175,Entity Name,25%,,
Pines Community Children's Centre,Child Care Centres,14 Hemming St,Parafield Gardens,SA,5107,(08) 8250 7010,,-34.772946,138.608604,,,Active,16 597 502 375,Entity Name,25%,,
Pied Piper Toy Library,Child Care Centres,7 Samarinda Ave,Ashburton,VIC,3147,(03) 9885 2052,,-37.865587,145.085092,,,Active,71 093 426 014,Entity Name,25%,,
Pied Piper Child Care,Child Care Centres,14 Aloha Gdns,Templestowe,VIC,3106,(03) 9841 7400,,-37.762771,145.156826,,,Active,45 043 383 611,Other Name,25%,,
Peppercorn Child Care Centre,Child Care Centres,36 Leichhardt St,Dubbo,NSW,2830,(02) 6882 4596,(02) 6885 0007,-32.24,148.64,1-Oct,1994,Active,41 602 298 216,Trading Name,25%,41 602 298 216,
Pecks Road Early Learning & Kinder,Child Care Centres,97 Pecks Rd,Sydenham,VIC,3037,(03) 8390 9052,,-37.704758,144.768352,,,Active,87 961 887 134,Business Name,25%,,
Parkerville Children & Youth Care,Child Care Centres,Beacon Rd,Parkerville,WA,6081,(08) 9290 1200,,-31.861008,116.121639,,,Active,86 437 092 401,Entity Name,25%,,
Park Way Child Care Centre,Child Care Centres,5 Park Way,Mawson Lakes,SA,5095,(08) 8260 7488,,-34.815569,138.620228,,,Active,55 976 247 540,Entity Name,25%,,
Park Ridge Childcare & Preschool,Child Care Centres,79 Talinga Dr,Park Ridge,QLD,4125,(07) 3297 0831,,-27.707799,153.046479,,,Active,61 199 101 398,Trading Name,25%,,
Pakenham Early Education Centre,Child Care Centres,150 Princes Hwy,Pakenham,VIC,3810,(03) 5941 9532,,-38.069059,145.472706,,,Active,95 123 828 553,Business Name,25%,,
Out Of School Hours Care Service,Child Care Centres,Railway Tce,Murray Bridge,SA,5253,(08) 8531 0179,,-35.11684,139.275041,,,Active,51 006 632 906,Entity Name,25%,,
Out Of School Hours Care Centre,Child Care Centres,48 Sorrell St,North Parramatta,NSW,2151,(02) 9683 3009,,-33.805595,151.007975,,,Active,74 737 831 145,Entity Name,25%,,
Out of School Hours Care,Child Care Centres,2- 24 Golden Grove Rd,Modbury,SA,5092,(08) 8396 3148,,-34.82599,138.69213,,,Active,92 965 474 349,Business Name,25%,,
Our Saviour Lutheran School OSHC/Vac,Child Care Centres,28 Taylors Rd,Aberfoyle Park,SA,5159,(08) 8270 6500,,-35.073865,138.587655,,,Active,60 633 576 937,Trading Name,25%,,
Our Lady Queen of Peace School Oshc,Child Care Centres,106 Botting St,Albert Park,SA,5014,0417 840 700,,-34.880797,138.52093,,,Active,15 651 901 873,Trading Name,25%,,
OSHC & Vacation Care,Child Care Centres,2 Balfour St,Nailsworth,SA,5083,(08) 8344 9700,,-34.88251,138.603769,,,Active,76 462 076 546,Business Name,25%,,
Okeedokee,Child Care Centres,119 Bennetts Rd,Norman Park,QLD,4170,(07) 3324 8887,,-27.486225,153.063933,,,Active,24 141 037 872,Entity Name,25%,,
Norwood Out Of School Hours Care,Child Care Centres,96 Beulah Rd,Norwood,SA,5067,(08) 8362 0805,,-34.91862,138.631197,,,Active,39 076 023 619,Entity Name,25%,,
North Haven School OSHC/Vac,Child Care Centres,0 Tapping Cres,North Haven,SA,5018,(08) 8248 5844,,-34.789696,138.497727,,,Active,64 831 238 976,Entity Name,25%,,
North East Community Children's Centre,Child Care Centres,1A Gilles Crst,Hillcrest,SA,5086,(08) 8261 8981,,-34.858608,138.652776,21-50,1987,Active,17 709 403 750,Entity Name,25%,,
Nightcliff Primary School Council After School Care,Child Care Centres,Cnr Pandanus and Cunjevoi Sts,Nightcliff,NT,810,(08) 8985 4605,,-12.37933,130.850173,,,Active,64 018 529 116,Entity Name,25%,,
Ngunnawal Child Care & Education Centre,Child Care Centres,Wanganeen Ave,Ngunnawal,ACT,2913,(02) 6126 9069,,-35.172654,149.109133,,,Active,19 125 799 859,Business Name,25%,,
Newmarket State School Outside School Hours Care,Child Care Centres,15 Banks St,Newmarket,QLD,4051,(07) 3356 6741,,-27.432583,153.003091,,,Active,99 453 157 879,Entity Name,25%,,
National Institute of Early Childhood Education,Child Care Centres,246 Varsity Parade,Varsity Lakes,QLD,4227,(07) 5553 8880,,-28.07669,153.415762,,,Active,71 609 470 831,Entity Name,25%,,
Naremburn Early Learning Centre,Child Care Centres,7 Donnelly Rd,Naremburn,NSW,2065,(02) 9460 6385,,-33.819822,151.204055,,,Active,77 600 571 355,Entity Name,25%,,
Nappy Express,Child Care Centres,13 Melway Crst,Toowoomba,QLD,4350,(07) 4633 2626,,-27.56685,151.9214,,,Active,16 065 817 656,Business Name,25%,,
Murraylands Education Centre,Child Care Centres,92 Mannum Rd,Murray Bridge,SA,5253,(08) 8531 3315,,-35.115694,139.267184,,,Active,59 105 335 157,Trading Name,25%,,
Mulberry Tree Childcare & Kindy Centres,Child Care Centres,10 Ledger Rd,Balcatta,WA,6021,(08) 9240 2407,,-31.866041,115.804026,,1995,Active,22 319 397 801,Trading Name,25%,,
Mt Hawthorn Out Of School Hours Centre Inc,Child Care Centres,Matlock St,Mt Hawthorn,WA,6016,(08) 9242 4274,,-31.917979,115.836589,,,Active,65 679 178 902,Entity Name,25%,,
Mount Gambier Out Of School Hours Care Service Incorporated,Child Care Centres,,Mt Gambier,SA,5290,(08) 8723 1922,,-37.8284262,140.7807318,,,Active,14 990 578 734,Entity Name,25%,,
Mother Goose Day Nursery,Child Care Centres,13 Paterson Rd,Bolwarra,NSW,2320,(02) 4930 3311,,-32.714698,151.569294,,2007,Active,59 122 358 614,Entity Name,25%,,
Morningside Child Care Centre,Child Care Centres,5 Windermere Ave,Morningside,QLD,4170,(07) 3399 4198,,-27.47301,153.080948,,,Active,32 162 875 767,Trading Name,25%,,
Mooloolah After School Vacation Care Programme,Child Care Centres,Mooloolah State School King St,Mooloolah,QLD,4553,(07) 5494 7491,,-26.682668,153.06347,,,Active,46 870 925 159,Trading Name,25%,,
Montessori Journey,Child Care Centres,95 Glenora St,Wynnum,QLD,4178,(07) 3396 8800,,-27.436781,153.167739,,,Active,41 095 691 384,Entity Name,25%,,
Mitchell Street Child Care Centre,Child Care Centres,127 Mitchell St,Larrakeyah,NT,820,(08) 8981 3408,,-12.457525,130.833649,,,Active,88 718 710 887,Entity Name,25%,,
Miami Community Childrens Centre,Child Care Centres,Redondo Ave,Miami,QLD,4220,(07) 5572 4477,,-28.066633,153.441975,,,Active,74 882 838 452,Entity Name,25%,,
Mersey Community Care Association Inc,Child Care Centres,167 Steele St,Devonport,TAS,7310,(03) 6424 8883,,-41.179658,146.343465,,,Active,59 360 529 821,Entity Name,25%,,
Merredin And Districts Childcare And Play School,Child Care Centres,Kitchener Rd,Merredin,WA,6415,(08) 9041 1934,,-31.484676,118.279292,,,Active,74 201 684 244,Entity Name,25%,,
Meela Child Care Centre,Child Care Centres,116 West Parade,Perth,WA,6000,(08) 9227 9886,,-31.943727,115.876837,,,Active,15 180 410 528,Entity Name,25%,,
Meadowbrook Childcare Centre,Child Care Centres,16 Yeates Crst,Meadowbrook,QLD,4131,(07) 3805 3341,,-27.666447,153.14035,,,Active,32 143 879 534,Entity Name,25%,,
McMahons Point Occasional Child Care Centre Inc,Child Care Centres,165 Blues Point Rd,McMahons Point,NSW,2060,(02) 9956 6209,,-33.843099,151.205217,,,Active,45 153 485 479,Entity Name,25%,,
McLeans Road Kindergarten,Child Care Centres,151 McLeans Rd,Bundoora,VIC,3083,(03) 9467 5993,,-37.695109,145.045452,,,Active,80 738 295 863,Entity Name,25%,,
Marryatville Primary School Oshc,Child Care Centres,0 Dankel Ave,Kensington,SA,5068,(08) 8332 1656,,-34.92432,138.64852,,,Active,91 550 421 758,Entity Name,25%,,
Margaret Ives Community Children's Centre,Child Care Centres,19 Edward St,Norwood,SA,5067,(08) 8362 7614,,-34.9168,138.633366,21-50,1978,Active,96 828 658 838,Entity Name,25%,,
Margaret Cribb Child Care Centre,Child Care Centres,70 Coleridge St,St Lucia,QLD,4067,(07) 3365 1509,,-27.496057,153.006663,,,Active,64 952 613 292,Entity Name,25%,,
Maraylya Early Learning Centre,Child Care Centres,8 Neich Rd,Maraylya,NSW,2765,(02) 4573 6686,(02) 4573 6636,-33.592837,150.915463,,2005,Active,38 107 154 825,Entity Name,25%,38 107 154 825,107 154 825
Maragon,Child Care Centres,545 Charing Crss,Wellard,WA,6170,0447 544 545,,-32.264341,115.817784,,,Active,29 146 924 629,Entity Name,25%,,
Manuka Childcare Centre,Child Care Centres,Flinders Way,Manuka,ACT,2603,(02) 6295 6503,,-35.324769,149.132345,,,Active,12 164 992 429,Entity Name,25%,,
Manuka Childcare Centre,Child Care Centres,30 Flinders Way,Manuka,ACT,2603,(02) 6295 6503,,-35.31994,149.133354,,,Active,12 164 992 429,Entity Name,25%,,
Maharishi Invincibility Centre,Child Care Centres,190 Greenhill Rd,Parkside,SA,5063,(08) 8271 7777,,-34.940814,138.615216,,,Active,20 001 342 301,Other Name,25%,,
Magill Campus & Community Children's Centre,Child Care Centres,14- 16 Bundey St,Magill,SA,5072,(08) 8302 4657,,-34.90824,138.67384,,,Active,49 032 160 797,Entity Name,25%,,
Magic Cottage Child Care,Child Care Centres,236 Fourth St,Wonthella,WA,6530,(08) 9964 5668,,-28.764245,114.628857,,,Active,77 009 205 734,Business Name,25%,,
Macquarie Child Care,Child Care Centres,Birch Place,Macquarie,ACT,2614,(02) 6251 4144,,-35.248902,149.060935,,,Active,79 601 647 460,Business Name,25%,,
MacKinnon Parade Children's Centre,Child Care Centres,148 MacKinnon Parade,North Adelaide,SA,5006,(08) 8267 2270,,-34.9113,138.603749,,,Active,82 020 035 429,Entity Name,25%,,
Mackay Family Day Care,Child Care Centres,Cnr Shakespeare and Rae Sts,East Mackay,QLD,4740,(07) 4965 9999,,-21.149657,149.19975,,,Active,39 531 796 897,Entity Name,25%,,
Love Kids Early Learning Centre,Child Care Centres,52 Wanda St,Mulgrave,VIC,3170,(03) 9560 9077,,-37.923688,145.166676,,,Active,83 116 020 887,Business Name,25%,,
Lollipop Lane,Child Care Centres,100 Kortum Dr,Burleigh Heads,QLD,4220,(07) 5576 1055,,-28.102387,153.428908,21-50,1993,Active,90 459 596 486,Business Name,25%,,
Little V.I.P.'s,Child Care Centres,36 Burns St,Maidstone,VIC,3012,(03) 9317 7970,,-37.786664,144.874433,1-Oct,,Active,62 491 007 577,Business Name,25%,,065 455 450
Little Scholars School Of Early Learning Nerang,Child Care Centres,67-71 Crusader Way,Nerang,QLD,4211,(07) 5596 0892,,-28.000533,153.322449,,,Active,78 618 708 982,Entity Name,25%,,
Little Scholars School of Early Learning Burleigh,Child Care Centres,,Burleigh,QLD,4220,(07) 5576 5433,,-20.3310292,143.0707772,,,Active,32 634 191 861,Entity Name,25%,,
Little Scholars school of Early learning Ashmore,Child Care Centres,Sturt Street &amp; Windsor Pl,Ashmore,QLD,4214,(07) 5597 2605,,-27.98184,153.37195,,,Active,72 608 520 252,Entity Name,25%,,
Little Saints,Child Care Centres,152 Narracan Dr,Newborough,VIC,3825,(03) 5127 6100,,-38.185651,146.281974,,,Active,61 163 658 179,Entity Name,25%,,
Little Rascals Childcare Centre,Child Care Centres,2 Settlers Rdg,Toodyay,WA,6566,(08) 9574 2922,,-31.544795,116.460626,,,Active,26 806 876 549,Business Name,25%,,
Little Peoples Place Early Learning Centre,Child Care Centres,267 Rockingham Rd,Spearwood,WA,6163,(08) 9434 3167,,-32.097758,115.782376,,,Active,61 851 223 181,Business Name,25%,,
Little Peoples Place Early Learning Centre,Child Care Centres,193 Canning Hwy,East Fremantle,WA,6158,(08) 9319 1176,,-32.04132,115.768066,,,Active,61 851 223 181,Business Name,25%,,
Little Peoples Place Early Learning Centre,Child Care Centres,14 Webber St,Willagee,WA,6156,(08) 9314 6060,,-32.050694,115.794452,,,Active,61 851 223 181,Business Name,25%,,
Little Legends Learning Centre,Child Care Centres,90 Whitehorse Rd,Dakabin,QLD,4503,(07) 3491 3288,,-27.23174,152.98161,,,Active,35 673 565 343,Business Name,25%,,
LITTLE KINDY,Child Care Centres,153 Seacombe Rd,Dover Gardens,SA,5048,0432 039 916,,-35.02928,138.536233,,,Active,49 609 905 777,Entity Name,25%,,
Little Friends On Forest,Child Care Centres,44 Victoria St,Forest Hill,QLD,4342,(07) 5465 4063,,-27.589868,152.356993,,,Active,13 120 699 112,Business Name,25%,,
Little Feet Childcare & Pre-preparatory,Child Care Centres,190- 200 Scarborough St,Southport,QLD,4215,(07) 5528 4388,,-27.961106,153.409115,,,Active,98 398 433 897,Business Name,25%,,
Little Ducks Childcare,Child Care Centres,97 Jubilee Tce,Bardon,QLD,4065,(07) 3366 6907,,-27.452288,152.988332,,,Active,76 108 000 166,Entity Name,25%,,
Little Champs Early Learning Centre,Child Care Centres,52- 56 Coman St,Rothwell,QLD,4022,(07) 3203 3455,,-27.210916,153.043309,,,Active,56 535 855 198,Trading Name,25%,,
Little Bee Early Years Learning & Child Care Centre,Child Care Centres,5 Llanherne Dr,Cambridge,TAS,7170,(03) 6248 5994,,-42.832065,147.492682,21-50,2007,Active,11 123 707 880,Entity Name,25%,53 866 360 878,
Little Bee Early Years Learning & Child Care Centre,Child Care Centres,298 Clarence St,Howrah,TAS,7018,(03) 6247 8015,(03) 6247 8059,-42.878934,147.402604,1-Oct,2007,Active,11 123 707 880,Entity Name,25%,53 866 360 878,
Little Angels @ Forest Hill,Child Care Centres,1 Victoria St,Forest Hill,QLD,4342,(07) 5465 4153,,-27.593198,152.35549,,,Active,53 120 832 984,Entity Name,25%,,
Little Acorns Childcare,Child Care Centres,231 Frankston Flinders Rd,Frankston South,VIC,3199,(03) 5971 2230,,-38.175607,145.141043,,,Active,92 137 200 376,Entity Name,25%,,
Lipscombe Child Care Services,Child Care Centres,568 Sandy Bay Rd,Sandy Bay,TAS,7005,(03) 6225 3241,,-42.90961,147.349374,,,Active,80 712 073 350,Entity Name,25%,,
Lipscombe Child Care Services,Child Care Centres,2 Lipscombe Ave,Sandy Bay,TAS,7005,(03) 6225 1418,,-42.909535,147.347085,21-50,1944,Active,80 712 073 350,Entity Name,25%,80 712 073 350,
Lil'Antz,Child Care Centres,1 Undoolya Rd,Alice Springs,NT,870,(08) 8953 1050,,-23.6973,133.88583,,,Active,16 101 876 340,Entity Name,25%,,
Lil Sprouts Childcare Centre,Child Care Centres,1238 Grand Junction Rd,Hope Valley,SA,5090,(08) 8395 0399,,-34.843487,138.702037,,,Active,76 695 834 684,Trading Name,25%,,
Leeming Out Of School Care Centre,Child Care Centres,Cnr Beasley Rd and Karel Ave,Leeming,WA,6149,(08) 9310 7305,,-32.072392,115.866947,,,Active,70 508 263 173,Entity Name,25%,,
Le Smileys Early Learning Centre,Child Care Centres,58 Lucas St,Gracemere,QLD,4702,(07) 4933 3553,,-23.458824,150.455134,21-50,2011,Active,49 787 877 612,Business Name,25%,49 787 877 612,
Le Fevre Community Children's Centre,Child Care Centres,5 Voules St,Taperoo,SA,5017,(08) 8248 2237,,-34.808245,138.500224,,,Active,29 873 598 515,Entity Name,25%,,
Lane Cove Occasional Child Care,Child Care Centres,Phoenix St,Lane Cove,NSW,2066,(02) 9428 2324,,-33.815233,151.173136,,,Active,38 450 474 481,Entity Name,25%,,
Laidley Kindergarten,Child Care Centres,36 William St,Laidley,QLD,4341,(07) 5465 1723,,-27.63144,152.39534,,,Active,22 171 414 769,Entity Name,25%,,
Ladybug Early Learning Centre & Kinder,Child Care Centres,469 Mount Dandenong Rd,Kilsyth,VIC,3137,(03) 9723 4488,,-37.80143823,145.3075792,,,Active,76 647 504 042,Trading Name,25%,,
Lady Gowrie Tasmania,Child Care Centres,103 Norwood Ave,Norwood,TAS,7250,(03) 6336 6971,,-41.462084,147.174275,,2005,Active,34 730 372 717,Entity Name,25%,34 730 372 717,
Lady Gowrie Tasmania,Child Care Centres,346 Macquarie St,South Hobart,TAS,7004,(03) 6230 6800,,-42.893027,147.3165,201-500,1939,Active,34 730 372 717,Entity Name,25%,34 730 372 717,
Lady Gowrie Tasmania,Child Care Centres,346 Macquarie St,South Hobart,TAS,7004,(03) 6230 6800,,-42.892936,147.316649,,,Active,34 730 372 717,Entity Name,25%,,
Lady Gowrie Child Centre Warry,Child Care Centres,171 Warry St,Fortitude Valley,QLD,4006,(07) 3252 2476,,-27.453889,153.02861,,,Active,12 226 452 826,Trading Name,25%,,
Lady Gowrie,Child Care Centres,,Fortitude Valley,QLD,4006,(07) 3839 3114,,-27.4572378,153.0334636,,,Active,12 226 452 826,Business Name,25%,,
Kookaburra Community Child Care Centre,Child Care Centres,256 Bedford Rd,Andergrove,QLD,4740,(07) 4955 2398,,-21.091424,149.181877,,,Active,42 865 373 461,Trading Name,25%,,
Koala Kindy Child Care Centre,Child Care Centres,51 Ashford Rd,Helensvale,QLD,4212,(07) 5573 3907,,-27.90337,153.32728,,,Active,61 169 290 574,Trading Name,25%,,
Koala Child Care,Child Care Centres,40 Marlborough Rd,Heathmont,VIC,3135,(03) 9870 9110,,-37.836037,145.229909,,,Active,87 003 550 721,Trading Name,25%,,
Klemzig Primary School OSHC/Vac,Child Care Centres,2 Hay St,Klemzig,SA,5087,(08) 8369 2456,,-34.876944,138.63769,,,Active,35 649 068 464,Entity Name,25%,,
Kingston Beach Educational Care,Child Care Centres,46 Beach Rd,Kingston Beach,TAS,7050,(03) 6229 6070,,-42.9804,147.31996,,,Active,48 040 918 060,Entity Name,25%,48 040 918 060,
Kings Park Kindergarten,Child Care Centres,24 Maplewood Rd,Kings Park,VIC,3021,(03) 9366 6692,,-37.731693,144.775266,,,Active,39 473 289 269,Entity Name,25%,,
King's Early Learning,Child Care Centres,198 Pimpama Jacobs Well Rd,Pimpama,QLD,4209,(07) 5587 7665,,-27.809843,153.295037,,,Active,84 010 547 994,Business Name,25%,84 010 547 994,
King's Early Learning,Child Care Centres,38 Anzac Ave,Logan Village,QLD,4207,(07) 5513 2744,,-27.769244,153.09875,,,Active,84 010 547 994,Business Name,25%,84 010 547 994,
Kinda Kapers,Child Care Centres,135 Excelsior Parade,Toronto,NSW,2283,(02) 4959 2100,,-33.022235,151.604015,1-Oct,,Active,20 065 320 685,Entity Name,25%,19 159 447 195,159 447 195
Kidz Retreat,Child Care Centres,171 George Rd,Beresford,WA,6530,(08) 9965 2177,,-28.760648,114.619039,Nov-20,2013,Active,69 163 412 262,Entity Name,25%,,
Kidz 'R' Us Childcare Centre,Child Care Centres,38 Monmouth St,Mt Lawley,WA,6050,(08) 9328 5740,,-31.9306,115.86638,,,Active,63 739 839 712,Trading Name,25%,,
Kidz Magic Child Care Centre,Child Care Centres,77 Juniper St,Heathwood,QLD,4110,1300 783 880,,-27.636239,152.986718,,,Active,76 640 056 539,Business Name,25%,,
Kidz Galore,Child Care Centres,66 Melvista Ave,Dalkeith,WA,6009,(08) 9389 7750,,-31.989132,115.796061,,,Active,63 069 285 472,Entity Name,25%,,
Kidz Club. Child Care Centre,Child Care Centres,"2 Glenere Drive, Corner North East Rd ,",Modbury,SA,5092,(08) 8265 6605,,-34.83536,138.68151,,2006,Active,34 084 396 496,Entity Name,25%,34 084 396 496,
Kidz At The Beach Pty Ltd,Child Care Centres,29 Tracey St,Queen's Beach,QLD,4805,(07) 4785 1863,,-19.97742,148.22822,,,Active,78 111 167 787,Business Name,25%,,
Kids-R-Us South Side,Child Care Centres,17 Decker Pl,Gympie,QLD,4570,(07) 5483 6100,,-26.201977,152.642787,,,Active,34 059 678 321,Trading Name,25%,,
Kidscape Yungaburra Childcare Centre,Child Care Centres,7 Elm St,Yungaburra,QLD,4884,(07) 4095 2842,,-17.273473,145.583624,,,Active,43 988 929 785,Trading Name,25%,,
Kids Pencil Childcare Centre,Child Care Centres,15 Station St,Guildford,NSW,2161,(02) 9632 5511,,-33.855244,150.986551,,,Active,46 343 068 425,Trading Name,25%,,
Kids Paradise Long Street,Child Care Centres,1 Long St,Langwarrin,VIC,3910,(03) 9770 9848,,-38.152937,145.184207,,,Active,92 140 529 924,Entity Name,25%,,
Kids On Queens Parade Child Care Centre and Registered,Child Care Centres,476 Queens Parade,Fitzroy North,VIC,3068,(03) 9489 3405,,-37.78541,144.99399,,,Active,50 889 057 341,Trading Name,25%,,
Kids Inn,Child Care Centres,11 Dampier St,Dalyellup,WA,6230,(08) 9795 7141,,-33.400543,115.621524,,,Active,81 061 971 604,Entity Name,25%,,
Kids Club,Child Care Centres,Owen St,Dalby,QLD,4405,(07) 4669 8416,,-27.19597,151.26831,,,Active,65 941 518 041,Trading Name,25%,,
Kids Campus,Child Care Centres,125 The Ave,Warnbro,WA,6169,(08) 9593 1065,,-32.335689,115.75966,,,Active,64 083 942 858,Business Name,25%,,
Kids Campus,Child Care Centres,6- 8 Andrew St,Seaford,VIC,3198,(03) 9782 5333,,-38.12052,145.14105,,,Active,64 083 942 858,Business Name,25%,,
Kids At West End,Child Care Centres,18 Mitchell St,West End,QLD,4101,(07) 3844 4133,,-27.48608,153.00522,,,Active,74 591 807 487,Business Name,25%,,
Kidman Park Community Child Care Centre,Child Care Centres,2 Francis St,Kidman Park,SA,5025,(08) 8235 0636,,-34.910738,138.524793,,,Active,24 232 926 643,Entity Name,25%,,
Keysborough Community Childrens Centre,Child Care Centres,364 Cheltenham Rd,Keysborough,VIC,3173,(03) 9798 4633,,-37.993364,145.160787,,,Active,94 135 164 817,Entity Name,25%,,
Kersbrook Primary School Oshc,Child Care Centres,0 Bowden St,Kersbrook,SA,5231,0403 604 716,,-34.78236,138.84964,,,Active,11 080 691 707,Entity Name,25%,,
Kentish Lifelong Learning and Care Inc,Child Care Centres,Unit 3 5 McCourt Rd,Yarrawonga,NT,830,(08) 8931 1152,(08) 8932 4530,-12.472254,130.991596,,1994,Active,57 075 339 180,Entity Name,25%,,
Kensington Community Children's Co-operative,Child Care Centres,Altona St,Kensington,VIC,3031,(03) 9376 4565,,-37.79722,144.9254,,,Active,80 355 779 265,Entity Name,25%,,
Kenmore & District Montessori Children's House,Child Care Centres,9 Brookefield Rd,Kenmore,QLD,4069,(07) 3378 2283,,-27.5072,152.93887,,,Active,27 843 083 473,Entity Name,25%,,
Kellbourne Heights Kindergarten And Child Care,Child Care Centres,197-199 Murrindale Dr,Rowville,VIC,3178,(03) 9759 6133,,-37.90717,145.26431,,,Active,49 163 392 381,Business Name,25%,,
Keilor Downs Kindergarten,Child Care Centres,12A Antwerp Dr,Keilor Downs,VIC,3038,(03) 9366 1945,,-37.721946,144.810712,,,Active,30 784 477 503,Entity Name,25%,,
Kdk Kids First Incorporated (Burrowes),Child Care Centres,41 Third Ave,Marsden,QLD,4132,(07) 3803 7717,,-27.676318,153.091027,,,Active,89 641 445 122,Entity Name,25%,,
Katherine Regional Family Child Care,Child Care Centres,28 First St,Katherine,NT,850,(08) 8971 2300,,-14.463042,132.262726,,,Active,37 561 916 561,Entity Name,25%,,
Katherine Regional Family Child Care,Child Care Centres,Lot 2387/ Casuarina St,Katherine East,NT,850,(08) 8971 0079,,-14.470587,132.292915,,,Active,37 561 916 561,Entity Name,25%,,
Kate Cocks Child Care Centre Incorporated,Child Care Centres,33 Hulbert St,Hove,SA,5048,(08) 8296 7676,,-35.009826,138.517756,,,Active,47 461 134 348,Trading Name,25%,,
Karate 4 Kids,Child Care Centres,4 Railway Parade,Nanango,QLD,4615,1300 854 542,,-26.674652,151.995864,,,Active,80 123 783 568,Entity Name,25%,,
Karate 4 Kids,Child Care Centres,4 Short St,Kingaroy,QLD,4610,1300 854 542,,-26.542226,151.840767,,,Active,80 123 783 568,Entity Name,25%,,
Kandies Kids Learn and Play Centre,Child Care Centres,Shop 4 1 Tibbing St,Nerang,QLD,4211,(07) 5596 1458,,-27.992747,153.33181,,,Active,37 496 221 948,Entity Name,25%,,
Kadina Child Care Centre,Child Care Centres,19 Doswell Tce,Kadina,SA,5554,(08) 8821 3709,,-33.96071,137.713283,,1989,Active,37 385 388 331,Entity Name,25%,37 385 388 331,
Just Little Kidz Long Day Child Care,Child Care Centres,Rear 102 Little Rd,Yagoona,NSW,2199,(02) 9707 3633,,-33.90945,151.02461,,,Active,57 787 260 250,Trading Name,25%,,
Jumbo Early Education,Child Care Centres,Shop 1-101 20 Convention Centre Pl,South Wharf,VIC,3006,1800 232 795,,-37.824655,144.949999,,,Active,52 847 426 212,Entity Name,25%,,
Jenny's Early Learning Centre,Child Care Centres,134 Ironstone Rd,Epsom,VIC,3551,(03) 5448 4520,(03) 5448 4620,-36.696509,144.322396,Nov-20,2000,Active,28 153 916 539,Business Name,25%,92 128 345 915,128 345 915
Jenny's Early Learning Centre,Child Care Centres,26 Glenelg Dr,Maiden Gully,VIC,3551,(03) 5449 7555,,-36.7476,144.20965,Nov-20,2000,Active,28 153 916 539,Business Name,25%,92 128 345 915,128 345 915
Jenny's Early Learning Centre,Child Care Centres,38 Regent St,Strathfieldsaye,VIC,3551,(03) 5439 4774,(03) 5439 4772,-36.809652,144.347989,Nov-20,2000,Active,28 153 916 539,Business Name,25%,92 128 345 915,128 345 915
Jenny Wren,Child Care Centres,18 Enderby St,Mawson,ACT,2607,(02) 6286 6199,,-35.3585,149.09597,,,Active,20 495 305 654,Business Name,25%,,
Jacaranda Community Centre Inc,Child Care Centres,146 Epsom Ave,Belmont,WA,6104,(08) 9477 4346,,-31.943291,115.939188,,,Active,33 082 369 591,Entity Name,25%,,
Infant Nutrition Council,Child Care Centres,2 Brisbane Ave,Barton,ACT,2600,(02) 6273 8164,,-35.309079,149.138334,,,Active,23 135 154 406,Entity Name,25%,,
Imagine For Children,Child Care Centres,855 Ruthven St,Toowoomba,QLD,4350,0421 350 232,,-27.568219,151.952124,,,Active,37 163 864 195,Business Name,25%,,
Hyden Occasional Child Care,Child Care Centres,70 McPherson St,Hyden,WA,6359,(08) 9880 5135,,-32.447667,118.861869,,,Active,51 708 849 501,Entity Name,25%,,
Huon Valley Environment Centre,Child Care Centres,17 Wilmot St,Huonville,TAS,7109,(03) 6264 1286,,-43.030123,147.04745,,,Active,79 838 779 566,Entity Name,25%,,
Humpty Doo Community & Child Care Centre Inc.,Child Care Centres,Lot 1826 Challoner Cct,Humpty Doo,NT,836,(08) 8988 1003,(08) 8988 5678,-12.579053,131.101241,1-Oct,1985,Active,82 687 398 188,Entity Name,25%,82 687 398 188,
Hothlyn Drive Children's Centre,Child Care Centres,144 Hothlyn Drive,Craigieburn,VIC,3064,(03) 9308 3816,,-37.60966,144.93161,,1997,Active,34 074 095 926,Entity Name,25%,,
Holland Park Child Care Centre.,Child Care Centres,93 Seville St,Holland Park,QLD,4121,(07) 3849 3300,,-27.52211,153.07366,,,Active,53 817 935 595,Business Name,25%,,
Hillside Haven,Child Care Centres,550 East Derwent Hwy,Risdon Vale,TAS,7016,(03) 9513 1362,,-42.816051,147.347125,,,Active,75 326 446 054,Entity Name,25%,,
Hillarys Out Of School Care (Inc),Child Care Centres,21C Endeavour Rd,Hillarys,WA,6025,(08) 9307 8879,,-31.799484,115.744586,,,Active,31 071 832 654,Entity Name,25%,,
Hawthorndene Primary School OSHC/Vac,Child Care Centres,0 Suffolk Rd,Hawthorndene,SA,5051,(08) 8278 1323,,-35.02042,138.63644,,,Active,79 265 726 102,Entity Name,25%,,
Happy Valley Primary School OSHC/Vac,Child Care Centres,18 Education Rd,Happy Valley,SA,5159,(08) 8322 2411,,-35.086889,138.584557,,,Active,55 252 834 859,Entity Name,25%,,
Happy Times Child Care,Child Care Centres,127 Station Rd,Burpengary,QLD,4505,(07) 3888 5500,,-27.15485,152.96771,,,Active,14 601 947 737,Entity Name,25%,,
Happy Sunshine Early Learning Centre,Child Care Centres,,Langwarrin,VIC,3910,0468 958 926,,-38.15361,145.18457,,,Active,87 635 273 442,Entity Name,25%,,
Happy Days Narre Warren,Child Care Centres,4 The Ave,Narre Warren,VIC,3805,(03) 9705 8266,,-38.05739,145.31519,,,Active,75 849 213 995,Trading Name,25%,,
Halifax St Children's Centre,Child Care Centres,257 Halifax St,Adelaide,SA,5000,(08) 8223 2240,,-34.932751,138.61136,,,Active,56 711 044 849,Entity Name,25%,,
Hahndorf Primary School OSHC/Vac,Child Care Centres,12 Church St,Hahndorf,SA,5245,(08) 8388 7420,,-35.027509,138.810603,,,Active,35 414 003 915,Entity Name,25%,,
Gumnuts Early Learning,Child Care Centres,35 Glenvale Rd,Newtown,QLD,4350,(07) 4634 3135,,-27.565343,151.925827,,,Active,40 584 319 641,Entity Name,25%,,
Gumnut Child Care Centre,Child Care Centres,136 West St,Gundagai,NSW,2722,(02) 6944 1889,,-35.05131,148.10719,,,Active,85 002 153 451,Business Name,25%,,
Gumeracha Primary School OSHC/Vac,Child Care Centres,0 Albert St,Gumeracha,SA,5233,(08) 8389 1871,,-34.825142,138.880608,,,Active,20 009 493 827,Entity Name,25%,,
GSL A Good Start to Life,Child Care Centres,196 McCormack St,Manunda,QLD,4870,(07) 4031 0123,,-16.91825,145.745379,,,Active,78 149 768 392,Entity Name,25%,,
Groovy Kidz Childcare Centre,Child Care Centres,13-15 Elizabeth St,Somerset,TAS,7322,(03) 6435 1980,,-41.04155,145.83067,,,Active,28 597 752 212,Business Name,25%,,
Greek Orthodox Community of St George,Child Care Centres,32 Russell St,South Brisbane,QLD,4101,(07) 3844 1179,,-27.47888,153.01439,,,Active,34 586 496 769,Entity Name,25%,,
Gray Child Care Centre,Child Care Centres,8 Victoria Dr,Palmerston,NT,830,(08) 8932 1012,,-12.48964,130.9812,,,Active,71 717 069 788,Entity Name,25%,,
Grange Primary School OSHC/Vac,Child Care Centres,39 Jetty St,Grange,SA,5022,(08) 8353 4917,,-34.902231,138.496059,,,Active,27 214 136 217,Entity Name,25%,,
Gowrie Victoria Children,Child Care Centres,Cnr Newry and Canning Sts,Carlton North,VIC,3054,(03) 9347 6388,,-37.790092,144.974135,,,Active,27 625 198 252,Business Name,25%,,
Gowrie State School Outside School Hours Care,Child Care Centres,Old Homebush Rd,Gowrie Junction,QLD,4352,(07) 4630 7710,,-27.46258,151.902654,,,Active,34 064 208 893,Entity Name,25%,,
Goondiwindi & District Child Care Centre,Child Care Centres,Albert St,Goondiwindi,QLD,4390,(07) 4671 0891,,-28.542172,150.301309,,,Active,36 289 115 517,Entity Name,25%,,
Goolwa Children's Centre,Child Care Centres,Brooking St,Goolwa,SA,5214,(08) 8555 2509,,-35.500456,138.783871,,,Active,48 750 250 056,Entity Name,25%,,
Goodstart Early Learning,Child Care Centres,963 Port Rd,Cheltenham,SA,5014,(08) 8268 5819,,-34.87102,138.521528,,,Active,69 139 967 794,Entity Name,25%,,
Goodstart Early Learning,Child Care Centres,318-328 Fulham Rd,Heatley,QLD,4814,(07) 4779 8027,,-19.288333,146.753586,,,Active,69 139 967 794,Entity Name,25%,,
Goodstart Early Learning,Child Care Centres,7 Don Cameron Dr,Calliope,QLD,4680,(07) 4975 7955,,-23.999095,151.211886,,,Active,69 139 967 794,Entity Name,25%,,
Goodstart Early Learning,Child Care Centres,Lot 101 Old Logan Rd,Camira,QLD,4300,(07) 3818 0899,,-27.6416135,152.917353,,,Active,69 139 967 794,Entity Name,25%,,
Goodstart Early Learning,Child Care Centres,904 Corner Glenelg Highway and Sutton Street,Sebastopol,VIC,3356,(03) 5336 1044,,-37.587393,143.825989,,,Active,69 139 967 794,Entity Name,25%,,
Goodstart Early Learning,Child Care Centres,609- 611 Creswick Rd,Wendouree,VIC,3355,(03) 5339 5111,,-37.54334,143.84959,,,Active,69 139 967 794,Entity Name,25%,,
Golden Grove Homestead Community Child Care Centre,Child Care Centres,1 Erudite Ct,Golden Grove,SA,5125,(08) 8289 2266,,-34.795778,138.694254,,,Active,42 165 356 394,Trading Name,25%,,
Glenfield Pre-School,Child Care Centres,62 Fawcett St,Glenfield,NSW,2167,(02) 9605 2268,,-33.977847,150.893883,,,Active,41 138 052 294,Business Name,25%,,
Glenelg Community Child Care Centre Incorporated,Child Care Centres,28 Kibby Ave,Glenelg North,SA,5045,(08) 8295 7936,,-34.969016,138.520739,,,Active,46 910 927 371,Entity Name,25%,,
Glen Dhu Play Centre,Child Care Centres,33 Leslie St,South Launceston,TAS,7249,(03) 6344 1014,,-41.455141,147.148398,,,Active,44 226 352 730,Trading Name,25%,,
Giggles Early Learning,Child Care Centres,19 Smith St,Smithton,TAS,7330,(03) 6452 1150,,-40.841996,145.124106,,,Active,87 635 077 422,Business Name,25%,,
Gaythorne Community Kindergarten,Child Care Centres,34 Taurama St,Gaythorne,QLD,4051,(07) 3355 6181,,-27.42287,152.97964,,,Active,81 440 445 227,Entity Name,25%,,
Gawler East Primary School Out of School Hours Care,Child Care Centres,Finch Rd,Gawler East,SA,5118,(08) 8523 3031,,-34.597791,138.761223,,,Active,79 859 691 321,Entity Name,25%,,
Gawler Community Child Care Centre Incorporated,Child Care Centres,Finch Rd,Gawler East,SA,5118,(08) 8522 2079,,-34.597791,138.761223,,,Active,32 873 955 053,Entity Name,25%,,
FRIENDS' SCHOOL,Child Care Centres,1 Wilson St,North Hobart,TAS,7000,(03) 6231 9590,,-42.868099,147.31235,,,Active,34 682 819 626,Entity Name,25%,,
Friends Child Care Centre,Child Care Centres,"St Vincents Private Hospital, Dalley St",Lismore,NSW,2480,(02) 6627 9338,,-32.929848,151.46328,,,Active,79 589 518 579,Trading Name,25%,,
French-Australian Preschool,Child Care Centres,Astrolabe St,Red Hill,ACT,2603,(02) 6295 0621,,-35.338413,149.132053,,,Active,68 875 657 014,Trading Name,25%,,
Free Range Kids,Child Care Centres,1 Smith St,Laidley,QLD,4341,(07) 5465 1342,,-27.6374947,152.3927395,,,Active,20 638 929 594,Entity Name,25%,,
Forrest Park Child Care,Child Care Centres,3 Shearwater Dr,Bakewell,NT,832,(08) 8932 7337,,-12.500676,130.989902,,,Active,32 070 843 319,Other Name,25%,,
Forde Early Learning Centre,Child Care Centres,1 Lomax St,Forde,ACT,2914,(02) 6162 2686,,-35.17221,149.142977,,,Active,47 612 952 670,Entity Name,25%,,
Forbes Primary School OSHC/Vac,Child Care Centres,80 Thomas St,South Plympton,SA,5038,(08) 8293 2568,,-34.97815,138.557621,,,Active,24 166 026 961,Entity Name,25%,,
Flinders University Childcare Centre,Child Care Centres,Sturt Dr,Bedford Park,SA,5042,(08) 8201 2881,,-35.018793,138.57456,,,Active,65 542 596 200,Entity Name,25%,,
First Early Learning,Child Care Centres,23 Oban Cl,Endeavour Hills,VIC,3802,(03) 8774 7406,,-37.970746,145.265351,,,Active,74 635 685 317,Entity Name,25%,,
Ferny Hills State School Outside School Hours Care,Child Care Centres,Illuta Ave,Ferny Hills,QLD,4055,(07) 3851 1573,,-27.402216,152.944107,1-Oct,1990,Active,39 584 591 235,Entity Name,25%,39 584 591 235,
Fawkner Park Childrens Centre Co-Operative Ltd,Child Care Centres,65 Toorak Rd,South Yarra,VIC,3141,(03) 9820 2758,,-37.83836,144.988706,,,Active,58 717 759 041,Trading Name,25%,,
Farrer Playschool,Child Care Centres,Longerenong St,Farrer,ACT,2607,(02) 6286 4781,,-35.37644,149.105259,,,Active,67 567 930 136,Entity Name,25%,,
Family Day Care South Cairns,Child Care Centres,27-29 Windarra Street St,Woree,QLD,4868,(07) 4033 0498,(07) 4033 0506,-16.95655,145.7398744,,1970,Active,50 223 114 792,Entity Name,25%,,
Family Day Care Schemes,Child Care Centres,Sunningdale Ave,Rochedale,QLD,4123,(07) 3341 4714,,-27.598847,153.124295,,,Active,71 272 567 066,Trading Name,25%,,
Faith Lutheran School,Child Care Centres,Magnolia Rd,Tanunda,SA,5352,(08) 8561 4200,,-34.520348,138.984582,,,Active,94 121 969 523,Trading Name,25%,,
Fairhaven Care Centre,Child Care Centres,1 Thomas St,Toowoomba,QLD,4350,(07) 4632 3391,,-27.557588,151.958177,,,Active,33 103 921 213,Entity Name,25%,,
Export Park Ccc & Kindergarten,Child Care Centres,2 Graham St,Adelaide Airport,SA,5950,(08) 8234 4731,,-34.935454,138.541259,,,Active,78 075 176 653,Business Name,25%,,
Elwood Childrens Centre,Child Care Centres,46 Tennyson St,Elwood,VIC,3184,(03) 9531 7054,,-37.873601,144.987514,,,Active,21 178 121 760,Entity Name,25%,,
Eltham Primary School O.O.S.H.C.C.,Child Care Centres,Dalton St,Eltham,VIC,3095,(03) 9431 2143,,-37.724855,145.148689,,,Active,19 025 579 974,Entity Name,25%,,
Els Holdings,Child Care Centres,1770 Albany Hwy,Kenwick,WA,6107,(08) 9459 5540,,-32.043022,115.973495,,,Active,35 169 723 737,Entity Name,25%,,
Elizabeth Grove Primary School Oshc,Child Care Centres,20 Haynes St,Elizabeth Grove,SA,5112,(08) 8255 6872,,-34.731888,138.669782,,,Active,56 507 291 963,Entity Name,25%,,
Elfin House Community Child Care Centre,Child Care Centres,132 Elphinstone St,North Rockhampton,QLD,4701,(07) 4928 3944,(07) 4928 3701,-23.364193,150.53095,,,Active,95 810 613 378,Entity Name,25%,,
Edwardstown Primary School Out of School Hours Care,Child Care Centres,Maria St,Melrose Park,SA,5039,(08) 8293 8253,,-34.97869,138.579154,,,Active,72 955 423 990,Entity Name,25%,,
Education Development Centre,Child Care Centres,Milner St,Hindmarsh,SA,5007,(08) 8463 5888,,-34.905856,138.570259,,,Active,86 688 653 593,Business Name,25%,,
Edgewater Out Of School Care,Child Care Centres,Emerald Way,Edgewater,WA,6027,(08) 9405 4150,,-31.768475,115.782233,,,Active,11 454 180 407,Entity Name,25%,,
Edge Kids Life,Child Care Centres,0 Old South Rd,Old Reynella,SA,5161,(08) 8329 2221,,-35.086292,138.544157,,,Active,41 122 818 688,Entity Name,25%,,
Echunga Primary School OSHC/Vac,Child Care Centres,0 Hahndorf Rd,Echunga,SA,5153,(08) 8388 8563,,-35.097513,138.791792,,,Active,82 947 765 528,Entity Name,25%,,
Eastgardens Kindy,Child Care Centres,Westfield Towers Eastgardens Suite 304 Level 2 Bunnerong Rd,Eastgardens,NSW,2036,(02) 9314 2615,,-33.946932,151.22853,,1994,Active,57 081 127 175,Business Name,25%,,
East Marden Primary School OSHC/Vac,Child Care Centres,43 James St,Campbelltown,SA,5074,(08) 8336 4980,,-34.882322,138.65409,,,Active,22 640 959 198,Entity Name,25%,,
East Bentleigh Child Care Centre,Child Care Centres,70 East Boundary Rd,Bentleigh East,VIC,3165,(03) 9579 4547,,-37.92871,145.057985,,,Active,98 216 454 135,Entity Name,25%,,
Early Years at Phoenix Park,Child Care Centres,25 Quentin Rd,Malvern East,VIC,3145,(03) 9569 9500,,-37.879345,145.081805,,,Active,52 516 073 517,Entity Name,25%,,
Early Learning Centre Smithfield,Child Care Centres,2-4 Faculty Cl,Smithfield,QLD,4878,(07) 4057 7722,,-16.82066,145.695241,,,Active,37 163 864 195,Business Name,25%,,
Early Childhood Australia,Child Care Centres,Unit 3 10 Mel St,Berrimah,NT,828,(08) 8986 7142,,-12.440832,130.919891,,,Active,44 950 767 752,Entity Name,25%,,
Duncraig Child Care Centre,Child Care Centres,43 Beddi Rd,Duncraig,WA,6023,(08) 9246 2991,,-31.837516,115.765591,,,Active,36 941 618 949,Trading Name,25%,,
Dolphin Early Learning Centre,Child Care Centres,10 Broadbent Ave,Middleton Grange,NSW,2171,(02) 9607 7666,,-33.916941,150.841126,,,Active,37 644 145 531,Entity Name,25%,,
Diversity Education,Child Care Centres,46 Landscape St,Stafford Heights,QLD,4053,(07) 3359 8200,,-27.393123,153.011924,,,Active,62 156 286 752,Entity Name,25%,,
Discovery Learning,Child Care Centres,3 Hubbard Pl,Safety Bay,WA,6169,(08) 9592 9332,,-32.30492,115.729465,,,Active,36 066 674 726,Entity Name,25%,,
Discovery Early Learning Centres - Ulverstone,Child Care Centres,24 Buttons Ave,Ulverstone,TAS,7315,(03) 6425 1388,,-41.155876,146.188266,,,Active,55 106 054 031,Business Name,25%,55 106 054 031,
Diamond Creek Primary School O.O.S.H.C.C.,Child Care Centres,Clyde St,Diamond Creek,VIC,3089,(03) 9438 5321,,-37.671409,145.152425,,,Active,64 547 642 533,Entity Name,25%,,
Diagonal Road Community Child Care Centre,Child Care Centres,326- 328 Diagonal Rd,Sturt,SA,5047,(08) 8296 7776,,-35.01962,138.55034,,,Active,32 566 503 207,Trading Name,25%,,
Dernancourt Primary School OSHC/Vac,Child Care Centres,29 Parsons Rd,Dernancourt,SA,5075,(08) 8369 2723,,-34.861134,138.672848,,,Active,79 098 193 715,Trading Name,25%,,
Deep Creek Child Care Centre,Child Care Centres,510 Blackburn Rd,Doncaster East,VIC,3109,(03) 9842 1666,,-37.760539,145.168627,,,Active,81 280 155 088,Entity Name,25%,,
Daylesford Community Child Care Centre,Child Care Centres,81 West St,Daylesford,VIC,3460,(03) 5348 3702,,-37.342311,144.138291,,,Active,60 044 287 049,Entity Name,25%,,
Darlington Primary School OSHC/Vac,Child Care Centres,42317 White Cres,Seacombe Gardens,SA,5047,(08) 8298 7915,,-35.02756,138.5475,,,Active,11 267 240 377,Entity Name,25%,,
Create Foundation,Child Care Centres,260 Macquarie St,Hobart,TAS,7000,(03) 6224 9822,,-42.890339,147.321212,,,Active,69 088 075 058,Entity Name,25%,,
CRANAplus,Child Care Centres,1/ 1 Stokes St,Alice Springs,NT,870,(08) 8959 1111,,-23.693567,133.876571,,,Active,31 601 433 502,Entity Name,25%,,
Cozi Kidz,Child Care Centres,15 Maxwell Rd,Manningham,SA,5086,(08) 8337 6111,,-34.872787,138.623188,,,Active,95 981 163 609,Entity Name,25%,,
Coomera Clubhouse,Child Care Centres,60 Coomera Springs Blv,Upper Coomera,QLD,4209,(07) 5665 6111,,-27.843124,153.295661,,,Active,88 504 022 385,Entity Name,25%,,
Community Health Services,Child Care Centres,Warbler Ct,Kalamunda,WA,6076,(08) 9454 9060,,-31.948951,116.007952,,,Active,36 164 438 475,Entity Name,25%,,
Community Childrens Centres SA,Child Care Centres,,Adelaide,SA,5000,(08) 8296 7676,(08) 8296 0551,-34.92717091,138.5995409,101-200,1989,Active,84 973 449 087,Entity Name,25%,84 973 449 087,
Community Child Care Centres,Child Care Centres,52 Redondo Ave,Miami,QLD,4220,(07) 5572 4477,,-28.064773,153.44118,,,Active,68 941 378 237,Entity Name,25%,,
Community Child Care Centres,Child Care Centres,91 Sunshine Blv,Mermaid Waters,QLD,4218,(07) 5572 7333,,-28.037031,153.424373,,,Active,68 941 378 237,Entity Name,25%,,
Community Care NESB Inc,Child Care Centres,11 Alexandra Rd,Ulverstone,TAS,7315,(03) 6425 2610,,-41.159072,146.17267,,,Active,79 671 001 075,Entity Name,25%,,
Columbia Park Child Care Centre,Child Care Centres,Columbia Dr,Wheelers Hill,VIC,3150,(03) 9560 8636,,-37.91389,145.18496,,,Active,45 021 570 046,Trading Name,25%,,
College Community Child Care Centre,Child Care Centres,"South Regional Tafe Campus, Via Somerville Drive",Bunbury,WA,6230,(08) 9780 7267,,-33.327415,115.636093,,,Active,34 470 621 674,Entity Name,25%,,
Coen Kindergarten,Child Care Centres,62 Taylor St,Coen,QLD,4871,(07) 4060 1184,,-13.943726,143.201678,,,Active,26 688 799 156,Entity Name,25%,,
Club Kindy,Child Care Centres,85 Lord Howe Dr,Hinchinbrook,NSW,2168,(02) 9826 8855,,-33.909168,150.860927,,,Active,85 088 505 613,Business Name,25%,,
Clovel Child Care & Early Learning Centre,Child Care Centres,65 Speed St,Liverpool,NSW,2170,(02) 8802 4520,,-33.930661,150.921162,,,Active,16 001 667 616,Business Name,25%,,
City West Child Care Centre,Child Care Centres,132 Bank St,Pyrmont,NSW,2009,(02) 9518 4033,,-33.86989,151.18994,,,Active,76 938 770 824,Business Name,25%,,
City of Knox Childrens Centres,Child Care Centres,Birchfield Crst,Wantirna,VIC,3152,(03) 9800 2419,,-37.863186,145.233085,,,Active,24 477 480 661,Other Name,25%,,
City Kids Early Learning Centre,Child Care Centres,216-222 Normanby Rd,Southbank,VIC,3006,(03) 9681 7774,,-37.8281,144.94914,,,Active,24 065 881 245,Business Name,25%,,
City Community Children's Centre,Child Care Centres,104 Gilbert St,Adelaide,SA,5000,(08) 8212 2377,,-34.934043,138.596434,,,Active,80 925 912 411,Trading Name,25%,,
City Child Care,Child Care Centres,95 Brookes St,Fortitude Valley,QLD,4006,(07) 3252 9911,,-27.453383,153.036543,,,Active,60 953 242 531,Trading Name,25%,,
Chrysalis Montessori School I,Child Care Centres,5 Parkland Rd,Glendalough,WA,6016,(08) 9444 9985,,-31.917486,115.817224,,,Active,67 495 188 005,Entity Name,25%,,
Christmas Island Neighbourhood Centre,Child Care Centres,Lister Pl,Christmas Island,WA,6798,(08) 9164 7247,,-10.424032,105.678239,,,Active,21 499 728 011,Entity Name,25%,,
Christian Children's Centre,Child Care Centres,11- 13 Warner St,Caboolture,QLD,4510,(07) 5499 3466,(07) 5499 3403,-27.081734,152.940653,,2009,Active,45 607 617 498,Entity Name,25%,,
Christian Children's Centre,Child Care Centres,11- 13 Warner St,Caboolture,QLD,4510,(07) 5499 3466,(07) 5499 3403,-27.081734,152.940653,,2009,Active,45 607 617 498,Entity Name,25%,,
Christian Children's Centre,Child Care Centres,11- 13 Warner St,Caboolture,QLD,4510,(07) 5499 3466,(07) 5499 3403,-27.081734,152.940653,,2009,Active,45 607 617 498,Entity Name,25%,,
Christian Children's Centre,Child Care Centres,5 Tonga Pl,Parkwood,QLD,4214,0420 305 540,,-27.956257,153.381169,,2009,Active,45 607 617 498,Entity Name,25%,,
Christian Children's Centre,Child Care Centres,5 Tonga Pl,Parkwood,QLD,4214,0420 305 540,,-27.956257,153.381169,,2009,Active,45 607 617 498,Entity Name,25%,,
Christian Children's Centre,Child Care Centres,19 Beverley Ave,Rochedale,QLD,4123,(07) 3341 4822,,-27.595818,153.115701,,2009,Active,45 607 617 498,Entity Name,25%,,
Christian Children's Centre,Child Care Centres,19 Beverley Ave,Rochedale,QLD,4123,(07) 3341 4822,,-27.595818,153.115701,,2009,Active,45 607 617 498,Entity Name,25%,,
Christian Children's Centre,Child Care Centres,19 Beverley Ave,Rochedale,QLD,4123,(07) 3341 4822,,-27.595818,153.115701,,2009,Active,45 607 617 498,Entity Name,25%,,
Christian Children's Centre,Child Care Centres,19 Beverley Ave,Rochedale,QLD,4123,(07) 3341 4822,,-27.595818,153.115701,,2009,Active,45 607 617 498,Entity Name,25%,,
Christian Children's Centre,Child Care Centres,19 Beverley Ave,Rochedale,QLD,4123,(07) 3341 4822,,-27.595818,153.115701,,2009,Active,45 607 617 498,Entity Name,25%,,
Christian Children's Centre,Child Care Centres,19 Beverley Ave,Rochedale,QLD,4123,(07) 3341 4822,,-27.595818,153.115701,,2009,Active,45 607 617 498,Entity Name,25%,,
Christian Children's Centre,Child Care Centres,19 Beverley Ave,Rochedale,QLD,4123,(07) 3341 4822,,-27.595818,153.115701,,2009,Active,45 607 617 498,Entity Name,25%,,
Christian Children's Centre,Child Care Centres,19 Beverley Ave,Rochedale,QLD,4123,(07) 3341 4822,,-27.595818,153.115701,,2009,Active,45 607 617 498,Entity Name,25%,,
Christian Children's Centre,Child Care Centres,19 Beverley Ave,Rochedale,QLD,4123,(07) 3341 4822,,-27.595818,153.115701,,2009,Active,45 607 617 498,Entity Name,25%,,
Christian Children's Centre,Child Care Centres,19 Beverley Ave,Rochedale,QLD,4123,(07) 3341 4822,,-27.595818,153.115701,,2009,Active,45 607 617 498,Entity Name,25%,,
Christian Children's Centre,Child Care Centres,19 Beverley Ave,Rochedale,QLD,4123,(07) 3341 4822,,-27.595818,153.115701,,2009,Active,45 607 617 498,Entity Name,25%,,
Christian Children's Centre,Child Care Centres,19 Beverley Ave,Rochedale,QLD,4123,(07) 3341 4822,,-27.595818,153.115701,,2009,Active,45 607 617 498,Entity Name,25%,,
Childrens Garden Kindercare,Child Care Centres,45 Ferrars Pl,South Melbourne,VIC,3205,(03) 9699 1913,,-37.840975,144.958883,21-50,2011,Active,89 124 747 066,Entity Name,25%,60 128 006 289,
Childrens Garden,Child Care Centres,369 Marmion St,Melville,WA,6156,(08) 9317 4467,(08) 9367 6473,-32.041995,115.803325,,2005,Active,89 124 747 066,Entity Name,25%,,
Childrens Educare Centre,Child Care Centres,6 Margaret St,East Toowoomba,QLD,4350,(07) 4639 4577,,-27.564251,151.974322,,,Active,94 010 402 963,Entity Name,25%,,
Childcare Queensland,Child Care Centres,11/ 6 Vanessa Blv,Springwood,QLD,4127,1300 365 325,,-27.61555,153.12579,,,Active,65 768 804 095,Other Name,25%,,
Child Health Services,Child Care Centres,2 Highpoint Blv,Ellenbrook,WA,6069,(08) 9296 8021,,-31.790735,115.974423,,,Active,47 200 419 464,Business Name,25%,,
Child Health Services,Child Care Centres,Civic Dr,Wanneroo,WA,6065,(08) 9405 2217,,-31.753267,115.807209,,,Active,47 200 419 464,Business Name,25%,,
Child Health Services,Child Care Centres,Blackmore 13 Innes Pl,Girrawheen,WA,6064,(08) 9342 4120,,-31.83935,115.82839,,,Active,47 200 419 464,Business Name,25%,,
Child Health Services,Child Care Centres,5 Carcoola St,Nollamara,WA,6061,(08) 9349 1891,,-31.880671,115.841845,,,Active,47 200 419 464,Business Name,25%,,
Child Health Services,Child Care Centres,Sail Tce,Heathridge,WA,6027,(08) 9401 9690,,-31.766654,115.757116,,,Active,47 200 419 464,Business Name,25%,,
Child Health Services,Child Care Centres,23 Batavia Pl,Kallaroo,WA,6025,(08) 9401 2615,,-31.79055,115.75161,,,Active,47 200 419 464,Business Name,25%,,
Child Health Services,Child Care Centres,Alexander Rd Cnr Caley Rd,Padbury,WA,6025,(08) 9401 2631,,-31.798663,115.762511,,,Active,47 200 419 464,Business Name,25%,,
Child Health Services,Child Care Centres,14 Camberwarra Dr,Craigie,WA,6025,(08) 9401 2619,,-31.79195,115.75679,,,Active,47 200 419 464,Business Name,25%,,
Child Health Services,Child Care Centres,5 Calectasia St,Greenwood,WA,6024,(08) 9447 9482,,-31.83159,115.801146,,,Active,47 200 419 464,Business Name,25%,,
Child Health Services,Child Care Centres,473 Beach Rd,Carine,WA,6020,(08) 9447 9372,,-31.845992,115.785003,,,Active,47 200 419 464,Business Name,25%,,
Child Health Services,Child Care Centres,108 High St,Sorrento,WA,6020,(08) 9447 1634,,-31.837088,115.759817,,,Active,47 200 419 464,Business Name,25%,,
Child Health Services,Child Care Centres,328 Marmion St,Cottesloe,WA,6011,(08) 9384 7704,,-31.984603,115.760256,,,Active,47 200 419 464,Business Name,25%,,
Child Care Services,Child Care Centres,144 March St,Orange,NSW,2800,(02) 6369 1276,,-33.280088,149.102797,,,Active,75 620 464 584,Entity Name,25%,,
Child Care Services,Child Care Centres,Luxford Rd,Emerton,NSW,2770,(02) 9628 6939,,-33.749126,150.801498,,,Active,75 620 464 584,Entity Name,25%,,
Centre for the Arts,Child Care Centres,37 Hunter St,Hobart,TAS,7000,(03) 6226 4300,,-42.881748,147.335824,,,Active,43 320 295 742,Business Name,25%,,
Centenary Childcare & Early Education Centre,Child Care Centres,15 Loffs Rd,Mt Ommaney,QLD,4074,(07) 3279 4448,,-27.55226,152.93373,,,Active,73 097 038 536,Entity Name,25%,,
Cedars Montessori Pre-School,Child Care Centres,344 Unley Rd,Unley Park,SA,5061,(08) 8373 4599,,-34.959455,138.608155,,,Active,90 116 800 965,Entity Name,25%,,
CCCSA,Child Care Centres,,Adelaide,SA,5000,(08) 8289 0100,,-34.92717091,138.5995409,,,Active,92 238 708 151,Trading Name,25%,,
Casuarina Childcare Centre,Child Care Centres,11 Bradshaw Tce,Casuarina,NT,810,(08) 8927 4180,,-12.374967,130.879745,,,Active,37 749 056 704,Entity Name,25%,,
Carol Murray Childrens Centre,Child Care Centres,1 Dinning Tce,Bordertown,SA,5268,(08) 8752 1374,,-36.31095,140.76559,,,Active,93 591 611 715,Entity Name,25%,,
Carma Playhouse,Child Care Centres,47 Helen St,Mt Gambier,SA,5290,(08) 8724 9575,,-37.82884,140.773694,,,Active,48 112 870 667,Business Name,25%,,
Carinity,Child Care Centres,46 Dawson Rds,Glenlee,QLD,4711,(07) 4936 3741,,-23.252874,150.493644,,,Active,46 909 844 617,Business Name,25%,,
Care For Carers - Jane Knowles,Child Care Centres,482 Back Creek Rd,Severnlea,QLD,4380,0417 760 678,,-28.729845,151.939589,,,Active,38 051 924 630,Other Name,25%,,
C&K,Child Care Centres,,Kedron,QLD,4031,1800 177 092,,-27.4069227,153.0326193,,,Active,77 115 226 698,Entity Name,25%,,
Byford Child Care,Child Care Centres,27 Clifton St,Byford,WA,6122,(08) 9526 2526,(08) 9526 2526,-32.220757,116.011877,1-Oct,1994,Active,87 164 343 097,Business Name,25%,28 775 230 804,
Busy Bees Early Learning Australia,Child Care Centres,1 Rule Ct,Somerville,WA,6430,(08) 9021 7599,,-30.774707,121.46552,,,Active,20 168 187 979,Entity Name,25%,,
Brunswick South West Primary School Out of School Hours Program,Child Care Centres,South Daly St,Brunswick West,VIC,3055,(03) 9387 9328,,-37.771029,144.943608,,,Active,72 343 939 303,Entity Name,25%,,
Bruce Ridge Early Childhood Centre,Child Care Centres,Calvary Hospital Mary Potter Cct,Bruce,ACT,2617,(02) 6251 3205,,-35.24,149.07,,,Active,48 307 160 718,Entity Name,25%,,
Brighton Family Day Care,Child Care Centres,,Bridgewater,TAS,7030,(03) 6268 7003,,-42.7373523,147.2269987,,,Active,91 125 513 260,Entity Name,25%,,
Bright Horizons Australia Childcare,Child Care Centres,2 Lipscombe Rd,Deception Bay,QLD,4508,(07) 3203 2999,,-27.190583,153.016723,,,Active,71 125 887 050,Entity Name,25%,,
Bright Horizons Australia Childcare,Child Care Centres,9 McMillan St,Elsternwick,VIC,3185,(03) 9533 0461,,-37.886635,145.001116,,,Active,71 125 887 050,Entity Name,25%,,
Bright Horizons Australia Childcare,Child Care Centres,156- 158 Yarra Rd,Croydon North,VIC,3136,(03) 9723 0588,,-37.77147,145.27657,,,Active,71 125 887 050,Entity Name,25%,,
Brenbeal Childrens Centre,Child Care Centres,8 Rayner St,Footscray,VIC,3011,(03) 9317 8244,,-37.793466,144.888023,,,Active,31 634 692 118,Entity Name,25%,,
Bottleforest Long Day Care,Child Care Centres,38 Engadine Ave,Engadine,NSW,2233,(02) 9520 1067,,-34.069255,151.008577,,,Active,78 163 538 711,Trading Name,25%,,
Booragoon Occasional Child Care Centre,Child Care Centres,525 Marmion St,Booragoon,WA,6154,(08) 9316 1253,,-32.038312,115.830473,,,Active,97 269 563 390,Trading Name,25%,,
Bonny Babes Christian Childcare,Child Care Centres,1 Ruth Tce,Oxenford,QLD,4210,(07) 5519 3300,,-27.890385,153.304456,,,Active,89 093 888 156,Business Name,25%,,
Blue Skies Child Care Centre,Child Care Centres,17 Famechon Crst,Modbury North,SA,5092,(08) 8395 8577,,-34.820909,138.682148,,2003,Active,44 901 769 048,Trading Name,25%,,
Blackwood Primary School OSHC/Vac,Child Care Centres,4 Seymour St,Eden Hills,SA,5050,(08) 8370 2232,,-35.026281,138.60658,,,Active,55 182 468 874,Entity Name,25%,,
Blackwood Community Child Care Centre,Child Care Centres,5 Brighton Parade,Blackwood,SA,5051,(08) 8278 7271,,-35.022373,138.615319,,,Active,57 067 901 549,Trading Name,25%,,
Bentleigh Early Child Education Co-Operative,Child Care Centres,134 Brewer Rd,Bentleigh,VIC,3204,(03) 9557 1705,,-37.922659,145.039257,,1979,Active,63 377 589 427,Entity Name,25%,63 677 589 427,
Belconnen Community Service,Child Care Centres,26 Chandler St,Belconnen,ACT,2617,(02) 6264 0200,,-35.238943,149.06915,,,Active,24 597 445 592,Trading Name,25%,,
Beenleigh Little School,Child Care Centres,20 City Rd,Beenleigh,QLD,4207,(07) 3382 7016,,-27.709624,153.203598,,,Active,70 604 412 786,Business Name,25%,,
Beechworth Community Child Care Centre,Child Care Centres,Mayday Hills Albert Rd,Beechworth,VIC,3747,(03) 5728 2378,,-36.36411679,146.6921934,,,Active,17 664 630 962,Entity Name,25%,,
Beaconsfield Child & Family Centre,Child Care Centres,33 Grubb St,Beaconsfield,TAS,7270,(03) 6383 1742,,-41.202851,146.822096,,,Active,59 358 639 367,Entity Name,25%,,
Bayside Kids,Child Care Centres,18 Neils St,Pialba,QLD,4655,0422 697 629,,-25.285045,152.845349,,,Active,78 103 935 276,Other Name,25%,,
Bayside Community College Early Childhood Centre,Child Care Centres,Windemere Rd,Alexandra Hills,QLD,4161,(07) 3824 5633,,-27.525415,153.212393,,,Active,74 669 651 107,Trading Name,25%,,
Barmera Kindergarten Occasional Care,Child Care Centres,0 Amy St,Barmera,SA,5345,(08) 8588 2210,,-34.25191,140.46977,,,Active,47 671 512 916,Entity Name,25%,,
Baringa Child Care Centre,Child Care Centres,Baddeley Crst,Spence,ACT,2615,(02) 6258 8891,,-35.203247,149.065008,,,Active,42 028 145 288,Entity Name,25%,,
Bambini Early Childhood Development,Child Care Centres,8 Beltana Dr,Boyne Island,QLD,4680,(07) 4973 7664,,-23.950906,151.355277,,,Active,82 153 103 434,Entity Name,25%,,
Bambini Early Childhood Development,Child Care Centres,300 Walkers Rd,Upper Caboolture,QLD,4510,(07) 5428 3939,,-27.109051,152.922757,,,Active,82 153 103 434,Entity Name,25%,,
Bambi Child Care,Child Care Centres,19 Dornie Pl,Fig Tree Pocket,QLD,4069,(07) 3378 2298,,-27.52367,152.953822,,,Active,91 062 457 201,Trading Name,25%,,
Ballarat YMCA,Child Care Centres,Barkly Square 25-39 Barkly Street,Ballarat,VIC,3350,(03) 4311 1500,,-37.56413,143.869137,,,Active,20 220 722 544,Business Name,25%,,
Autism Specific Early Learning & Care Centre,Child Care Centres,34 Alexander St,Burnie,TAS,7320,(03) 6430 5779,,-41.051286,145.903323,,,Active,79 067 523 335,Business Name,25%,,
Australian Premier Learning,Child Care Centres,18 Rose Pl,Waldara,VIC,3678,(03) 5721 2334,,-36.334569,146.290164,,,Active,50 152 188 460,Entity Name,25%,,
Australian Childcare Alliance Victoria,Child Care Centres,6/539 Highett Rd,Highett,VIC,3190,(03) 9532 2017,,-37.94901,145.04412,,,Active,61 953 934 130,Entity Name,25%,,
Aurora Children's Cottage,Child Care Centres,3 Wootton Crst,Gordon,ACT,2906,(02) 6294 0578,,-35.458871,149.078571,1-Oct,,Active,43 601 224 499,Entity Name,25%,43 601 224 499,
Atherton Children's Centre Inc Child Care and Kindergarten,Child Care Centres,46 Kelly St,Atherton,QLD,4883,(07) 4091 2452,(07) 4091 5860,-17.259106,145.4798,1-Oct,,Active,73 160 650 310,Other Name,25%,,
Ashfield Baptist Childcare Inc,Child Care Centres,19 Holden St,Ashfield,NSW,2131,(02) 9799 4220,,-33.890663,151.12518,,,Active,71 633 984 714,Entity Name,25%,,
Arnhem Early Learning Centre,Child Care Centres,Lot 1665/ Mathew Flinders Way,Nhulunbuy,NT,880,(08) 8987 1004,,-12.186551,136.78075,,,Active,39 128 278 026,Entity Name,25%,,
Archer Street Child Care Centre,Child Care Centres,148 Archer St,Rockhampton,QLD,4700,(07) 4927 6872,,-23.37961,150.503241,,,Active,64 071 255 742,Entity Name,25%,,
Ararat Child Care,Child Care Centres,37 McNeil St,Ararat,VIC,3377,(03) 5352 2892,,-37.27614,142.93206,,,Active,50 858 932 663,Other Name,25%,,
Annesley College Children's Centre,Child Care Centres,89 Greenhill Rd,Wayville,SA,5034,(08) 8422 2286,,-34.942369,138.598029,,,Active,71 644 037 764,Entity Name,25%,,
Amazing Grace Early Learning Centre,Child Care Centres,39 Ninth Ave,Railway Estate,QLD,4810,0478 687 635,,-19.275973,146.816978,,,Active,65 114 511 787,Business Name,25%,,
Amaze Early Education Centre,Child Care Centres,22 Hinterland Dr,Mudgeeraba,QLD,4213,(07) 5530 3122,,-28.080452,153.359122,21-50,2008,Active,47 515 068 727,Business Name,25%,13 717 620 421,
Alzheimer's Australia (national office),Child Care Centres,Level 1 42 Macquarie St,Barton,ACT,2600,(02) 6278 8900,,-35.307366,149.135891,,,Active,79 625 582 771,Business Name,25%,,
Alto Early Learning,Child Care Centres,118 Overport Rd,Frankston South,VIC,3199,(03) 9787 9494,,-38.174485,145.120234,,,Active,34 154 465 746,Entity Name,25%,,
Ally's Kindy,Child Care Centres,68 Woodford St,West Ipswich,QLD,4305,(07) 3282 8888,,-27.631473,152.738093,,2006,Active,26 077 102 422,Trading Name,25%,70 113 259 555,113 259 555
Allenstown Childcare.,Child Care Centres,27 Ross St,Allenstown,QLD,4700,(07) 4921 3203,,-23.39502,150.50377,,,Active,15 533 788 526,Trading Name,25%,,
Alberton Primary School OSHC/Vac,Child Care Centres,14 Broad St,Queenstown,SA,5014,(08) 8447 1641,,-34.863207,138.511746,,,Active,14 578 879 785,Entity Name,25%,,
Albany Occasional Child Care Centre,Child Care Centres,Vancouver St Cnr Collie St,Albany,WA,6330,(08) 9841 6610,,-35.024936,117.88201,,,Active,56 781 459 084,Entity Name,25%,,
Airport West Child Care Co-Operative,Child Care Centres,4 Clydesdale Rd,Airport West,VIC,3042,(03) 9374 2202,,-37.728264,144.880429,,,Active,15 305 627 143,Trading Name,25%,,
After The Bell,Child Care Centres,1220 Burwood Hwy,Upper Ferntree Gully,VIC,3156,(03) 9758 6744,,-37.893803,145.31149,,,Active,91 158 479 978,Entity Name,25%,,
After School Care Programme,Child Care Centres,16 Beverley St,Doncaster East,VIC,3109,(03) 9841 9554,,-37.790725,145.153146,,,Active,18 215 266 062,Entity Name,25%,,
Active Kids Early Learning Centre,Child Care Centres,76 Anzac Ave,Hillcrest,QLD,4118,(07) 3800 8100,,-27.66615,153.032011,1-Oct,,Active,77 410 687 828,Business Name,25%,53 821 534 441,
Abundant Life Church,Child Care Centres,490 South Arm Rd,Lauderdale,TAS,7021,(03) 6248 7317,,-42.909459,147.486269,,,Active,88 810 373 010,Entity Name,25%,,
Aberfoyle Hub Community Childrens? Centre,Child Care Centres,34 Taylors Rd,Aberfoyle Park,SA,5159,(08) 8370 5063,,-35.073701,138.59062,,,Active,18 681 686 780,Entity Name,25%,,
A Country Garden Early Childhood Centres,Child Care Centres,Willow House 38- 40 Drayton Rd,Harristown,QLD,4350,(07) 4635 5448,,-27.578016,151.937728,,,Active,50 320 890 788,Trading Name,25%,,
1 Tree Of Life Child Care Centre And Kindergarten,Child Care Centres,PO Box 634,Mudgeeraba,QLD,4213,,,-28.0805412,153.3659075,1-Oct,,Active,59 099 463 360,Business Name,25%,,
YMCA In-Home Care,Child Care Centres,Ymca Building Chifley St,Acacia Ridge,QLD,4110,(07) 3277 0990,,-27.585104,153.024565,,,Active,25 220 227 877,Trading Name,50%,,
Yarra Junction Early Learning Centre,Child Care Centres,4 Station St,Yarra Junction,VIC,3797,(03) 5967 2898,,-37.782158,145.608617,,,Active,51 649 683 710,Business Name,50%,,
Wood's Cottage Nursery,Child Care Centres,115 Reen Rd,Gidgegannup,WA,6083,(08) 9574 6352,,-31.80048,116.161817,,,Active,25 576 234 067,Trading Name,50%,,
Wind In The Willows Child Care Centre,Child Care Centres,28 Wilson St,Bassendean,WA,6054,(08) 9279 3773,,-31.90655,115.948714,,,Active,92 124 480 520,Business Name,50%,,
Wendy's Family Day Care,Child Care Centres,6 Ivory Cct,Casino,NSW,2470,0411 501 703,,-28.85892,153.064367,1-Oct,,Active,96 507 819 037,Trading Name,50%,44 123 056 162,
Waurnvale Drive Early Learning & Kinder,Child Care Centres,48 Waurnvale Dr,Belmont,VIC,3216,(03) 5241 9776,,-38.194621,144.322749,,,Active,14 160 028 277,Business Name,50%,,
Warwick Early Learning Centre,Child Care Centres,58 Guy St,Warwick,QLD,4370,(07) 4661 5444,,-28.218828,152.0302,,,Active,97 168 776 305,Business Name,50%,,
Wandana Avenue Early Learning & Kinder,Child Care Centres,46 Wandana Ave,Gilles Plains,SA,5086,(08) 8261 1322,,-34.849181,138.660655,,,Active,14 160 028 277,Business Name,50%,,
Upper Coomera Early Learning Centre,Child Care Centres,228 Billinghurst Crst,Upper Coomera,QLD,4209,(07) 5556 0511,,-27.855084,153.298634,,,Active,93 615 678 898,Business Name,50%,,
Unley Early Learning Centre,Child Care Centres,46 Oxford Tce,Unley,SA,5061,(08) 8357 3800,(08) 8357 3522,-34.94986,138.609405,,,Active,25 071 982 100,Business Name,50%,,
Tiny Tots Soccer,Child Care Centres,Creek Rd,Lenah Valley,TAS,7008,0405 645 442,,-42.860582,147.289207,,,Active,36 831 234 655,Other Name,50%,,
Time 4 Tots Early Learning Centre,Child Care Centres,Unit 2/ 2 Princes Hwy,Pakenham,VIC,3810,(03) 5940 2111,,-38.071569,145.488513,,,Active,52 124 716 061,Business Name,50%,,
The Learning Cottage,Child Care Centres,28 Keen St,Lismore,NSW,2480,(02) 6621 2221,,-28.805394,153.281563,,,Active,45 368 871 608,Business Name,50%,,
The Cubby House Early Learning & Kinder,Child Care Centres,91 Pound Rd,Colac,VIC,3250,(03) 5231 4811,,-38.353655,143.591002,,,Active,64 168 941 839,Business Name,50%,,
The Cottage,Child Care Centres,91-93 Main Rd,Huonville,TAS,7109,(03) 6264 0333,,-43.026566,147.050647,,,Active,27 284 489 647,Trading Name,50%,,
The Berry Patch,Child Care Centres,20 - 22 McCombe Ave,Rouse Hill,NSW,2155,(02) 9629 4599,,-33.68499,150.92373,,,Active,63 736 142 148,Trading Name,50%,,
Tewantin Early Learning Centre,Child Care Centres,7 Doonella St,Tewantin,QLD,4565,(07) 5474 1988,,-26.392778,153.035296,,,Active,57 600 354 121,Business Name,50%,,
Tenison Place Early Learning & Kinder,Child Care Centres,2 Tenison Pl,Golden Grove,SA,5125,(08) 8289 1033,,-34.794008,138.692319,,,Active,14 160 028 277,Business Name,50%,,
Tadpoles Early Learning Eatons Hill 2,Child Care Centres,2-6 Harry Ct,Warner,QLD,4500,(07) 3264 8022,,-27.335304,152.9593,,,Active,37 163 864 195,Business Name,50%,46 163 864 195,
Tadpoles Early Learning Centre Brisbane Airport,Child Care Centres,2 The Boulevard,Brisbane Airport,QLD,4008,(07) 3114 7240,,-27.417359,153.080432,,,Active,48 153 143 803,Business Name,50%,,
Tadpoles Early Learning Cashmere,Child Care Centres,2 Sarow Dr,Warner,QLD,4500,(07) 3882 6803,,-27.299916,152.938684,,,Active,37 163 864 195,Business Name,50%,43 163 864 195,
Sydenham Road Early Learning Centre,Child Care Centres,352 Sydenham Rd,Sydenham,VIC,3037,(03) 8390 9866,,-37.703171,144.773828,,,Active,83 116 020 887,Business Name,50%,,
Sweetland Road Early Learning Centre,Child Care Centres,54 Sweetland Rd,Box Hill,VIC,3128,(03) 9890 4257,,-37.824849,145.137375,,,Active,83 116 020 887,Business Name,50%,,
Sunnybank Child Care & Early Education Centre,Child Care Centres,88 Lister Rd,Sunnybank,QLD,4109,(07) 3345 1824,,-27.57928,153.05827,,,Active,61 942 113 556,Trading Name,50%,,
Story House Early Learning Windsor,Child Care Centres,11 Bryden St,Windsor,QLD,4030,(07) 3857 4053,,-27.439089,153.031548,,,Active,23 615 678 978,Business Name,50%,23 615 678 978,
Story House Early Learning Telford Park,Child Care Centres,269 Halletts Way,Darley,VIC,3340,(03) 5367 1230,,-37.648667,144.430222,,,Active,14 612 772 513,Business Name,50%,14 612 772 513,
Story House Early Learning Springvale South,Child Care Centres,808-814 Heatherton Rd,Springvale South,VIC,3172,(03) 9540 9479,,-37.961667,145.144196,,,Active,20 612 772 540,Business Name,50%,20 612 772 540,
Story House Early Learning Roma Street,Child Care Centres,Level 1 160 Roma St,Brisbane,QLD,4000,(07) 3211 8999,,-27.466885,153.018885,,,Active,12 615 678 870,Business Name,50%,12 615 678 870,
Story House Early Learning Keilor Downs,Child Care Centres,7 Copernicus Way,Keilor Downs,VIC,3038,(03) 9366 4380,,-37.724282,144.806964,,,Active,20 612 772 540,Business Name,50%,20 612 772 540,
Story House Early Learning Epping,Child Care Centres,329A Harvest Home Rd,Epping,VIC,3076,(03) 9408 1586,,-37.621103,145.005701,,,Active,22 619 310 048,Business Name,50%,22 619 310 048,
Story House Early Learning Diamond Creek,Child Care Centres,104-106 Hurstbridge Rd,Diamond Creek,VIC,3089,(03) 9438 2733,,-37.67498,145.162736,,,Active,86 628 011 398,Business Name,50%,,
Story House Early Learning Deception Bay,Child Care Centres,59/61 Shayne Ave,Deception Bay,QLD,4508,(07) 3204 8244,,-27.192507,153.014872,,,Active,68 608 157 802,Business Name,50%,68 608 157 802,
Stepping; Stones Child Care Centre,Child Care Centres,,Tuggeranong,ACT,2900,(02) 6228 1544,,-35.48270305,149.1035225,,,Active,52 749 520 766,Trading Name,50%,,
Stepping Stones Child Care Centre,Child Care Centres,Cnr Temple Tce Tamarind Rd,Moulden,NT,830,(08) 8932 7133,,-12.504227,130.975394,,,Active,52 749 520 766,Trading Name,50%,,
Stepping Stone Two Wells Childcare & Early Development Centre,Child Care Centres,15 Gawler Rd,Two Wells,SA,5501,(08) 8520 2111,,-34.592418,138.51673,,,Active,21 121 794 769,Business Name,50%,,
Stepping Stone Tanunda Childcare & Early Development Centre,Child Care Centres,150-152 Murray St,Tanunda,SA,5352,(08) 8563 0514,,-34.518101,138.966757,,,Active,21 121 794 769,Business Name,50%,,
Stepping Stone Morphett Vale Childcare & Early Development Centre,Child Care Centres,14 Colorado Ct,Morphett Vale,SA,5162,(08) 8322 8055,,-35.110457,138.547091,,,Active,21 121 794 769,Business Name,50%,,
Stepping Stone Hewett Childcare & Early Development Centre,Child Care Centres,10 Rosella Ct,Hewett,SA,5118,(08) 8523 1443,,-34.57508,138.751791,,,Active,21 121 794 769,Business Name,50%,,
Stepping Stone Happy Valley Childcare & Early Development Centre,Child Care Centres,12 Happy Valley Dr,Happy Valley,SA,5159,(08) 8321 9400,,-35.068749,138.583122,,,Active,21 121 794 769,Business Name,50%,,
Stepping Stone Evanston Childcare & Early Development Centre,Child Care Centres,40 Para Rd,Evanston,SA,5116,(08) 8523 2114,,-34.617908,138.734317,,,Active,21 121 794 769,Business Name,50%,,
Stepping Stone Angle Vale Childcare & Early Development Centre,Child Care Centres,91-97 Heaslip Rd,Angle Vale,SA,5117,(08) 8284 8482,,-34.643056,138.646015,,,Active,21 121 794 769,Business Name,50%,,
Step By Step,Child Care Centres,30 Rixon Rd,Appin,NSW,2560,(02) 4631 1661,,-34.1936,150.785627,,,Active,35 929 230 136,Trading Name,50%,,
St Paul's Lutheran Child Care Centre,Child Care Centres,38 Townsend St,Mysterton,QLD,4812,,,-19.285739,146.79314,,,Active,21 737 422 041,Trading Name,50%,,
St Paul's Early Learning Centre,Child Care Centres,Cummins St,Nightcliff,NT,810,(08) 8985 4678,(08) 8948 0227,-12.385967,130.8581,Nov-20,2012,Active,78 390 017 486,Business Name,50%,,
St Mary's Child Care Centre,Child Care Centres,240 Birrell St,Waverley,NSW,2024,(02) 9389 0853,,-33.896569,151.254124,,,Active,73 377 689 296,Trading Name,50%,,
Springfield Children's Development Centre,Child Care Centres,36 Sapphire St,Springfield,QLD,4300,(07) 3818 2900,,-27.652114,152.918014,,,Active,15 560 827 304,Other Name,50%,,
Smithfield Village Early Learning,Child Care Centres,Cnr O'Brien Rd and Smithfield Village Dr,Smithfield,QLD,4878,(07) 4057 8479,,-16.812348,145.700964,,,Active,30 701 442 809,Business Name,50%,,
Smithfield Child Care Centre,Child Care Centres,71 Oxford St,Smithfield,NSW,2164,(02) 9604 0226,,-33.85599,150.940284,,,Active,60 108 710 740,Entity Name,50%,,
Smart Start Early Learning Centre,Child Care Centres,Cnr School and Hallets Rd,Redbank Plains,QLD,4301,,,-27.651109,152.851203,,,Active,95 938 911 234,Trading Name,50%,,
Smart Start,Child Care Centres,Cnr School and Hallets Rd,Redbank Plains,QLD,4301,(07) 3814 1188,,-27.651109,152.851203,,,Active,34 487 987 513,Business Name,50%,,
Shailer Park Early Childhood Centre,Child Care Centres,359 Chatswood Rd,Shailer Park,QLD,4128,(07) 3801 4666,,-27.641873,153.174296,,,Active,35 761 147 991,Trading Name,50%,,
Sesame Kids,Child Care Centres,89-93 Albert St,Sebastopol,VIC,3356,(03) 5384 5232,,-37.589966,143.841569,,,Active,94 618 517 883,Business Name,50%,,
Scots Early Learning Centre,Child Care Centres,6 Melville St,Hobart,TAS,7000,(03) 6234 2018,,-42.8786,147.327688,Nov-20,,Active,93 857 108 342,Entity Name,50%,82 951 784 381,
Sanctuary Child Care Centre,Child Care Centres,14 Alexandria Blv,Canning Vale,WA,6155,(08) 9456 0515,,-32.094978,115.925683,,,Active,37 163 864 195,Business Name,50%,,
Redlynch Premium Childcare,Child Care Centres,30-34 Heritage Central St,Redlynch,QLD,4870,(07) 4039 3705,,-16.89231,145.699978,,,Active,97 168 776 305,Business Name,50%,,
Rainbow Child Care Centre,Child Care Centres,35 Carlton St,New Town,TAS,7008,(03) 6228 7015,,-42.863249,147.299922,,,Active,77 330 971 565,Trading Name,50%,,
Rainbow Child Care Centre,Child Care Centres,15 Anson Rd,Albany,WA,6330,(08) 9842 5825,,-34.991993,117.858957,,,Active,62 068 295 269,Trading Name,50%,,
Quinns Beach Care for Kids Early Learning Centre,Child Care Centres,218 Santa Barbara Parade,Quinns Rocks,WA,6030,(08) 9562 7560,,-31.655133,115.692883,,,Active,42 169 887 405,Business Name,50%,,
Quinliven Road Early Learning & Kinder,Child Care Centres,64-68 Quinliven Rd,Aldinga Beach,SA,5173,(08) 8556 5833,,-35.268531,138.464335,,,Active,88 601 384 650,Business Name,50%,,
Precious Cargo Education Pty Ltd,Child Care Centres,,Harrogate,SA,5244,(08) 8538 7244,,-34.9508426,139.0152917,,,Active,56 128 040 308,Entity Name,50%,,
Pipsqueaks Playschool,Child Care Centres,51 Borough Road,Baldivis,WA,6171,(08) 9523 0167,,-32.358007,115.81351,,,Active,14 160 028 277,Business Name,50%,,
Pied Piper Child Care Centre,Child Care Centres,1 Aldam Rd,Port Noarlunga,SA,5167,(08) 8386 2007,,-35.17704,138.47614,,,Active,45 043 383 611,Other Name,50%,,
Petit Early Learning Journey Caloundra,Child Care Centres,4 Lomond Cres,Caloundra West,QLD,4551,(07) 5405 3621,,-26.798648,153.089677,,,Active,85 854 040 695,Business Name,50%,,
Peter Pan Early Learning,Child Care Centres,139 Carruthers St,Curtin,ACT,2605,(02) 6281 5721,(02) 6281 5725,-35.323631,149.080284,Nov-20,,Active,12 605 167 851,Business Name,50%,42 078 849 000,
Pearl Street Child Care Centre,Child Care Centres,2 Pearl St,Glenroy,VIC,3046,(03) 9306 8366,,-37.709572,144.927257,,,Active,21 007 103 095,Business Name,50%,,
PCYC,Child Care Centres,120 King St,Cloncurry,QLD,4824,(07) 4742 1523,,-20.70912,140.508195,,,Active,70 277 164 514,Other Name,50%,,
PCYC,Child Care Centres,Brassall State School Hall Pine Mountain Rd,Brassall,QLD,4305,(07) 3813 4361,,-27.597553,152.7455,,,Active,70 277 164 514,Other Name,50%,,
Papilio Early Learning Lutwyche,Child Care Centres,112 Chalk St,Lutwyche,QLD,4030,(07) 3357 2922,,-27.421837,153.035533,,,Active,48 153 143 803,Business Name,50%,65 163 864 195,
Papilio Early Learning Bruce,Child Care Centres,100 Eastern Valley Way,Bruce,ACT,2617,(02) 6251 9399,,-35.242111,149.075098,,,Active,37 163 864 195,Business Name,50%,,
Papilio Early Learning Barton,Child Care Centres,50 Blackall St,Barton,ACT,2600,(02) 6273 5080,,-35.307969,149.136469,,,Active,37 163 864 195,Business Name,50%,,
Papilio Early Learning Artarmon,Child Care Centres,4-10 Carlotta St,Artarmon,NSW,2064,(02) 9966 4313,,-33.817437,151.184112,,,Active,37 163 864 195,Business Name,50%,,
Palmerston Early Learning Centre,Child Care Centres,15 Hutchison Tce,Bakewell,NT,832,(08) 8932 8000,,-12.494386,130.995273,,,Active,24 117 142 516,Trading Name,50%,24 117 142 516,
O'Connor Play & Learn,Child Care Centres,23- 25 Jarvis St,Oconnor,WA,6163,(08) 9314 6814,,-32.06261,115.7893,,,Active,12 605 167 851,Business Name,50%,,
Oakdowns Early Learning Centre,Child Care Centres,4 Millview Dr,Oakdowns,TAS,7019,(03) 6247 6589,,-42.902494,147.451754,21-50,2005,Active,77 601 329 579,Business Name,50%,77 601 329 579,
Oakdowns Early Learning Centre,Child Care Centres,4 Oakdowns Parade,Oakdowns,TAS,7019,(03) 6247 6589,,-42.90249,147.45175,,,Active,77 601 329 579,Business Name,50%,,
Noosaville Child Care & Pre-School Centre,Child Care Centres,90 Goodchap St,Noosaville,QLD,4566,(07) 5455 6033,,-26.407429,153.047402,Nov-20,2005,Active,58 816 537 202,Business Name,50%,98 115 033 559,
Nipperville Early Learning Centre,Child Care Centres,6 Gwynne St,Watson,ACT,2602,(02) 6241 1122,,-35.239081,149.152496,,,Active,47 009 986 547,Business Name,50%,,
Nino Early Learning Adventures,Child Care Centres,60-62 Florey Ave,Point Cook,VIC,3030,(03) 9421 6755,,-37.896134,144.720166,,,Active,28 601 509 504,Business Name,50%,,
Nino Early Learning Adventures,Child Care Centres,519 Melbourne Rd,Newport,VIC,3015,(03) 9111 8200,,-37.836733,144.8818,,,Active,28 601 509 504,Business Name,50%,,
Nido Early School Somerton Park,Child Care Centres,100 Diagonal Rd,Somerton Park,SA,5044,(08) 7078 0049,,-34.994057,138.529077,,,Active,14 160 028 277,Business Name,50%,,
Nido Early School Shepparton,Child Care Centres,2-10 St Georges Rd,Shepparton,VIC,3630,(03) 5849 1655,,-36.382883,145.407486,,,Active,14 160 028 277,Business Name,50%,,
Nido Early School Salisbury Downs,Child Care Centres,214 Salisbury Hwy,Salisbury Downs,SA,5108,(08) 7079 6824,,-34.772218,138.633084,,,Active,14 160 028 277,Business Name,50%,,
Nido Early School Noarlunga Downs,Child Care Centres,Lot 100 Lovelock Dr,Noarlunga Downs,SA,5168,(08) 7078 2630,,-35.145989,138.491237,,,Active,14 160 028 277,Business Name,50%,,
Nido Early School Moonee Valley,Child Care Centres,2B Mcpherson St,Moonee Ponds,VIC,3039,(03) 7019 9217,,-37.764618,144.928133,,,Active,14 160 028 277,Business Name,50%,,
Nido Early School Kensington Park,Child Care Centres,364 Magill Rd,Kensington Park,SA,5068,(08) 7078 0042,,-34.914415,138.654634,,,Active,14 160 028 277,Business Name,50%,,
Nido Early School Hocking,Child Care Centres,176 Nicholas Rd,Hocking,WA,6065,(08) 9405 9328,,-31.769069,115.819226,,,Active,14 160 028 277,Business Name,50%,,
Nido Early School Franklin,Child Care Centres,2 Mavis Latham St,Franklin,ACT,2913,(02) 6189 1037,,-35.2011,149.147374,,,Active,14 160 028 277,Business Name,50%,,
Nido Early School Craigieburn,Child Care Centres,40 Hothlyn Dr,Craigieburn,VIC,3064,(03) 9068 8173,,-37.60273,144.941875,,,Active,14 160 028 277,Business Name,50%,,
Nido Early School Carlisle,Child Care Centres,35 Weston St,Carlisle,WA,6101,(08) 6244 2040,,-31.974022,115.915836,,,Active,14 160 028 277,Business Name,50%,,
Nido Early School Blakeview,Child Care Centres,5 Main Tce,Blakeview,SA,5114,(08) 7078 2629,,-34.681304,138.702417,,,Active,14 160 028 277,Business Name,50%,,
Nido Early School Bayswater North,Child Care Centres,187 Canterbury Rd,Bayswater North,VIC,3153,(03) 8593 9436,,-37.828478,145.282847,,,Active,14 160 028 277,Business Name,50%,,
Nido Early School Aveley,Child Care Centres,1680 Millhouse Rd,Aveley,WA,6069,(08) 6117 5002,,-31.776616,115.988275,,,Active,14 160 028 277,Business Name,50%,,
Nido Early School Altona Meadows,Child Care Centres,19-21 Point Cook Rd,Altona Meadows,VIC,3028,(03) 8592 8077,,-37.873149,144.75999,,,Active,14 160 028 277,Business Name,50%,,
Narre Warren Early Learning Centre,Child Care Centres,102 Anaconda Rd,Narre Warren,VIC,3805,(03) 9705 1311,,-38.001593,145.304801,,,Active,40 169 354 394,Business Name,50%,,
Narre Kids Early Learning & Kinder,Child Care Centres,413-415 Princes Hwy,Narre Warren,VIC,3805,(03) 8790 3239,,-38.021904,145.299616,,,Active,64 168 941 839,Business Name,50%,,
Naracoorte Early Learning Centre,Child Care Centres,27 MacDonnell St,Naracoorte,SA,5271,(08) 8762 4944,,-36.954802,140.735871,,,Active,50 708 773 351,Business Name,50%,,
MT Archer Early Learning,Child Care Centres,202 Thozet Rd,Koongal,QLD,4701,(07) 4926 5728,,-23.363372,150.545384,,,Active,30 120 611 988,Business Name,50%,,
Mother Goose Child Care Centre,Child Care Centres,76- 78 Andersons Creek Rd,Doncaster East,VIC,3109,(03) 9842 1544,,-37.7709,145.17108,,,Active,56 064 056 426,Business Name,50%,,
Morphett Vale Childcare Centre,Child Care Centres,7 William St,Morphett Vale,SA,5162,(08) 8384 8996,,-35.121708,138.524253,,2017,Active,69 945 798 066,Business Name,50%,69 945 798 066,
Mornington Street Early Learning & Kinder,Child Care Centres,Cnr Mornington Street and Katherine Avenue,Amaroo,ACT,2914,(02) 6188 5309,,-35.165518,149.130365,,,Active,14 160 028 277,Business Name,50%,,
Mooringe World of Learning,Child Care Centres,9 Mooringe Avenue,Plympton,SA,5038,(08) 8293 4344,,-34.960296,138.553138,,,Active,68 119 584 048,Business Name,50%,,
Miss Pepper Australian Nanny School,Child Care Centres,100 Pioneer Dr,Mole Creek,TAS,7304,(03) 6363 2074,,-41.555247,146.398993,,,Active,28 110 125 838,Business Name,50%,,
Military Road Early Learning & Kinder,Child Care Centres,171 Military Rd,Avondale Heights,VIC,3034,(03) 9337 2117,,-37.75905,144.86032,,,Active,14 160 028 277,Business Name,50%,,
