Name,Categories,Address,City,State,Postcode,Phone,Fax,Latitude,Longitude,Employees,Established,ABN_Status,ABN,ABN_Name,Accuracy,ABN_2,ACN
White & Bright Family Dental Prestons,Hospitals,1985 Camden Valley Way,Prestons,NSW,2170,(02) 9825 0807,,-33.952386,150.855885,,,Active,17 565 331 723,Business Name,25%,,
Warners Bay Dental Surgery,Hospitals,Unit 6 / 2-4 King St,Warners Bay,NSW,2282,(02) 4948 5233,(02) 4948 5900,-32.975537,151.647083,Nov-20,,Active,69 207 806 768,Trading Name,25%,38 746 012 264,387 460 122
Sydney Smiles Dental,Hospitals,Ground Floor Shop 1 / 2- Help St,Chatswood,NSW,2067,(02) 9410 2001,,-33.795898,151.180036,,,Active,40 156 304 899,Entity Name,25%,,
Sydney Cosmetic Specialists,Hospitals,55 Phillip St,Parramatta,NSW,2150,(02) 9633 2423,,-33.812788,151.005076,,,Active,69 168 045 985,Entity Name,25%,,
Roman Vilderman Denture Clinic,Hospitals,72 Brighton Rd,Ripponlea,VIC,3185,(03) 9531 9590,,-37.87653,144.99579,,1995,Active,66 856 818 624,Entity Name,25%,80 097 384 891,
Pure Dentistry,Hospitals,11/1932-1974 Logan Rd,Upper Mt Gravatt,QLD,4122,(07) 3343 4869,,-27.557664,153.08096,Nov-20,2015,Active,20 972 295 754,Entity Name,25%,20 972 295 754,605 923 840
Progressive Dental,Hospitals,116 Military Rd,Neutral Bay,NSW,2089,(02) 9953 0895,,-33.829519,151.218375,,,Active,88 601 331 168,Entity Name,25%,,
OZ Dental,Hospitals,108 Princess Rd,Balga,WA,6061,(08) 9349 3470,,-31.856103,115.838113,,,Active,26 168 018 193,Entity Name,25%,,
Merredin Dental Services,Hospitals,32 Bates Street,Merredin,WA,6415,(08) 9041 2249,,-31.48016,118.278222,,,Active,52 149 909 151,Entity Name,25%,,
KIDS,Hospitals,,Mountside,QLD,4370,(07) 4942 5111,,-28.325027,151.854114,,,Active,59 137 305 107,Entity Name,25%,,
Highton Dental Centre,Hospitals,52 Barrabool Rd,Highton,VIC,3216,(03) 5242 8860,,-38.171423,144.323984,,,Active,14 618 985 747,Entity Name,25%,,
Forest Lake Dental,Hospitals,Shop 5/ 255 Forest Lake Blv,Forest Lake,QLD,4078,(07) 3879 7072,,-27.626545,152.970013,,,Active,67 128 451 788,Business Name,25%,,
Dr Ranjith Jayasinghe,Hospitals,319 Thomas St,Dandenong,VIC,3175,(03) 9791 4030,,-37.985049,145.212072,1-Oct,2000,Active,72 894 493 209,Entity Name,25%,72 894 493 209,
Direct Denture Care,Hospitals,8 Pindari Pl,Hillarys,WA,6025,(08) 9401 1195,,-31.802851,115.746222,,,Active,74 575 878 454,Trading Name,25%,,
Dental Health Services,Hospitals,Cnr 13th Street &amp; Deakin Avenue Cnr 132th Deakin Ave,Mildura,VIC,3500,(03) 5021 0944,,-34.202629,142.141148,,,Active,55 264 981 997,Entity Name,25%,,
Cryo Australia,Hospitals,Shop 4 Ground Floor 108 Wickham St,Fortitude Valley,QLD,4006,1300 279 628,,-27.460087,153.031465,,,Active,40 612 579 978,Entity Name,25%,,
Chen Gemma,Hospitals,Next To Stirling Lakes Med Ctr Suite 3 734 Karrinyup Rd,Stirling,WA,6021,(08) 9440 4455,,-31.88985,115.82147,,,Active,84 149 293 991,Trading Name,25%,,
Calton Hill Dental,Hospitals,18 Young St,Gympie,QLD,4570,(07) 5482 4442,,-26.191089,152.663624,,,Active,56 163 275 394,Entity Name,25%,,
Ballarat Denture Repair Service,Hospitals,207 Drummond St South,Ballarat,VIC,3350,(03) 5331 5196,,-37.565651,143.846817,,,Active,20 220 722 544,Business Name,25%,77 086 704 574,
Australian Dental Association,Hospitals,,Launceston,TAS,7250,(03) 6334 2561,,-41.4370868,147.1393767,,,Active,95 174 118 424,Entity Name,25%,,
Australian Dental Association,Hospitals,,Hobart,TAS,7000,(03) 6248 1546,,-42.881903,147.323815,,,Active,95 174 118 424,Entity Name,25%,,
All Denture Repairs,Hospitals,Unit 1 30 Erindale Rd,Balcatta,WA,6021,1800 772 775,,-31.86715,115.80439,,,Active,18 060 776 150,Business Name,25%,,
Adelaide Dental Emergency,Hospitals,237 Martins Rd,Parafield Gardens,SA,5107,0402 479 227,,-34.780336,138.607941,1-Oct,1998,Active,57 636 006 794,Entity Name,25%,55 123 199 888,
Adelaide Dental Emergency,Hospitals,529 Marion Rd,South Plympton,SA,5038,0402 479 227,,-34.976165,138.555957,1-Oct,1998,Active,57 636 006 794,Entity Name,25%,55 123 199 888,
Adelaide Dental Emergency,Hospitals,3 Hanson Rd,Woodville North,SA,5012,0402 479 227,,-34.874024,138.548083,1-Oct,1998,Active,57 636 006 794,Entity Name,25%,55 123 199 888,
Totally Teeth,Hospitals,,Southport,QLD,4215,1300 805 850,,-27.9673072,153.4145154,,,Active,71 736 991 809,Business Name,50%,,
The Denture Centre,Hospitals,326 Fitzgerald St,North Perth,WA,6006,(08) 9227 7321,,-31.935769,115.858857,1-Oct,1985,Active,96 009 516 492,Trading Name,50%,17 053 324 340,
SA Health,Hospitals,Alexander Kelly Dr,Noarlunga Centre,SA,5168,(08) 8384 9244,,-35.138932,138.499553,,,Active,22 876 630 988,Other Name,50%,,
Pacific Smiles Dental,Hospitals,1-45 Bay Ave,Deception Bay,QLD,4508,(07) 3203 3300,,-27.194251,153.02913,,,Active,42 103 087 449,Business Name,50%,,
MGA Dental,Hospitals,122 Salerno St,Surfers Paradise,QLD,4217,(07) 5539 9748,,-28.01254,153.41245,1-Oct,2002,Active,38 936 103 949,Trading Name,50%,64 614 868 466,
Mendelsohn Dental,Hospitals,1 312 Rokeby Rd,Subiaco,WA,6008,(08) 9388 3885,,-31.953597,115.824212,,,Active,57 234 982 690,Business Name,50%,,
McIntyre Road Dental Services Pty Ltd,Hospitals,222 Target Hill Rd,Greenwith,SA,5125,(08) 8289 9712,,-34.77053,138.706386,,,Active,45 133 157 034,Entity Name,50%,,
Dental Excel,Hospitals,2/57 Gawain Rd,Bracken Ridge,QLD,4017,(07) 3261 4222,,-27.31516,153.0332,,,Active,77 080 382 065,Business Name,50%,,
Centreway Dental,Hospitals,7 The Centre Way,Lara,VIC,3212,(03) 5282 2222,,-38.022902,144.407888,1-Oct,,Active,89 627 089 966,Business Name,50%,,
Brisbane Dental Studio,Hospitals,Cnr Sandgate and Alexandra Rds,Clayfield,QLD,4011,(07) 3862 1702,,-27.41781,153.05666,,,Active,92 124 730 874,Business Name,50%,,
Barossa Dental,Hospitals,37 Tanunda Rd,Nuriootpa,SA,5355,(08) 8562 4206,(08) 8562 1443,-34.4801,138.993152,Nov-20,2008,Active,92 124 730 874,Business Name,50%,41 321 665 891,
Barossa Dental,Hospitals,37 Barossa Valley Way,Nuriootpa,SA,5355,(08) 8562 1444,,-34.471295,138.996449,,,Active,92 124 730 874,Business Name,50%,,
Apollo Dental,Hospitals,21 Joondalup Dr,Edgewater,WA,6027,(08) 9301 0885,,-31.773126,115.782223,,,Active,38 255 879 357,Trading Name,50%,,
Toongabbie Family Dental,Hospitals,Shop 15 15-19 Toongabbie Rd,Toongabbie,NSW,2146,(02) 9636 2535,,-33.788991,150.95001,,,Active,15 140 970 181,Business Name,75%,,
SA Health,Hospitals,Cowra Ave,Gilles Plains,SA,5086,(08) 8266 0426,,-34.849359,138.662749,,,Active,22 876 630 988,Other Name,75%,,
QLD Dental Care,Hospitals,7/ 11 Logandowns Dr,Meadowbrook,QLD,4131,(07) 3805 9197,,-27.667215,153.137998,,,Active,77 601 838 206,Business Name,75%,,
Diviach Dental,Hospitals,,Altona North,VIC,3025,(03) 9393 3944,,-37.8346613,144.8475459,,,Active,68 605 910 478,Business Name,75%,,
Dentists @ Coorparoo,Hospitals,344 Old Cleveland Rd,Coorparoo,QLD,4151,(07) 3847 8001,,-27.493618,153.060124,,,Active,83 509 248 553,Business Name,75%,,
Chats Dental,Hospitals,16 Malvern Avenue,Chatswood,NSW,2067,(02) 8021 3848,,-33.793484,151.185375,,,Active,38 872 296 577,Business Name,75%,,
Toombul Smiles,Hospitals,Centro Toombul Shop 69/ 1015 Sandgate Rd,Toombul,QLD,4012,(07) 3162 9742,,-27.409068,153.061524,,,Active,90 603 078 806,Business Name,100%,,
South Perth Dental Surgery,Hospitals,48 Coode St,South Perth,WA,6151,(08) 9367 4775,,-31.981543,115.864275,,,Active,98 772 387 311,Business Name,100%,98 772 387 311,
Portrush Family Dental,Hospitals,32 Lower Portrush Rd,Marden,SA,5070,(08) 8362 7992,(08) 8363 6434,-34.894891,138.636589,1-Oct,1970,Active,48 303 998 014,Business Name,100%,48 303 998 014,
Northgate Denture Clinic,Hospitals,30 Coulter Crst,Northgate,QLD,4013,(07) 3266 4508,,-27.39208,153.075312,,,Active,93 494 728 673,Business Name,100%,,
Hillarys Denture Service,Hospitals,8 Pindari Pl,Hillarys,WA,6025,(08) 9468 8778,,-31.802851,115.746222,,,Active,56 558 664 016,Trading Name,100%,,
Harvie Dental,Hospitals,Cnr Lower Gold Coast Hwy and 2 Diana Ave,Burleigh Heads,QLD,4220,(07) 5520 2277,,-28.08557,153.44854,,,Active,21 107 417 130,Business Name,100%,21 107 417 130,
Flinders Dental,Hospitals,Shop 3/ 33 Cook St,Flinders,VIC,3929,(03) 5989 1129,,-38.474491,145.018487,,,Active,57 930 906 178,Business Name,100%,,
Enlighten Dental,Hospitals,115 Sailors Bay Rd,Northbridge,NSW,2063,(02) 9958 2333,,-33.810321,151.209332,,,Active,93 167 076 011,Business Name,100%,,
Emergency Denture Repairs,Hospitals,228 Cambridge St Cnr Gregory St,Wembley,WA,6014,(08) 9382 2222,,-31.940454,115.820862,Nov-20,1979,Active,42 671 711 786,Business Name,100%,42 671 711 786,
Applecross Dental Care,Hospitals,835 Canning Hwy,Applecross,WA,6153,(08) 9364 3408,,-32.017148,115.840671,,,Active,12 626 557 980,Business Name,100%,,
AJK Denture Venture,Hospitals,,Roleystone,WA,6111,0416 016 004,,-32.1122836,116.0697535,,,Active,22 541 531 774,Business Name,100%,,
Adelaide Emergency Dental,Hospitals,157 Archer St,North Adelaide,SA,5006,0437 733 350,,-34.907828,138.595046,1-Oct,2010,Active,86 747 754 633,Business Name,100%,,
AAA All Hours Dental Emergencies,Hospitals,270 Foote St Cnr Mount View Rd,Templestowe,VIC,3106,0403 293 267,,-37.761,145.13951,,,Active,15 425 038 234,Business Name,100%,,
A Better Dental Care,Hospitals,3/6- 8 Langmore Lane,Berwick,VIC,3806,(03) 9796 2029,,-38.03337,145.34473,,,Active,88 109 898 606,Trading Name,100%,,
Vogue Denture Centre,Hospitals,325 Great Eastern Hwy,Redcliffe,WA,6104,(08) 9277 5671,,-31.9363,115.93562,,,,,,,,
Vincent K. Leung,Hospitals,,Fitzroy,VIC,3065,(03) 9419 4220,,-37.7987007,144.9786869,,,,,,,,
Townsville Denture Clinic,Hospitals,166 Charters Towers Rd,Hermit Park,QLD,4812,(07) 4725 3199,,-19.281287,146.798737,,,,,,,,
ToothKind Beerwah,Hospitals,62 Simpson St,Beerwah,QLD,4519,(07) 5494 0964,,-26.85793,152.95787,,,,,,,,
Thornlands Denture Clinic,Hospitals,235 Panorama Dr,Thornlands,QLD,4164,(07) 3206 4587,,-27.564359,153.251059,,,,,,,,
The Doreen Dental Clinic,Hospitals,River Stone Central Shopping Center Unit 5 121 Elation Bvd,Doreen,VIC,3754,(03) 8735 7359,,-37.615705,145.125455,,,,,,,,
Surfers International Dental Surgery,Hospitals,Surfers International - Ground Floor 9 Trickett St,Surfers Paradise,QLD,4217,,,-28.00375,153.43045,,,,,,,,
Summer Dental Hills,Hospitals,Summer Hill Shopping Shop 271 850 Plenty Rd,Reservoir,VIC,3073,(03) 9942 5651,,-37.72471,145.028703,,,,,,,,
Sorell Dental Clinic,Hospitals,Community Health Centre 57 Cole St,Sorell,TAS,7172,1300 011 013,,-42.779856,147.560156,,,,,,,,
Sideris Paul,Hospitals,Belmont Rd Shopping Village 185 Belmont Rd,Belmont,QLD,4153,(07) 3890 0254,,-27.48405,153.12614,,,,,,,,
Remote Dental Coober Pedy,Hospitals,Lot 18 Paxton Rd,Coober Pedy,SA,5723,(08) 8672 3096,,-29.013186,134.751753,,,,,,,,
PMD Dental Care,Hospitals,256 Bay St,Port Melbourne,VIC,3207,(03) 9646 5100,,-37.838163,144.943219,,,,,,,,
Perth Central Dental Centre,Hospitals,497 Wellington St,Perth,WA,6000,(08) 9222 5903,(08) 9486 9110,-31.952007,115.85823,21-50,2012,,,,,,
Perth Central Dental Centre,Hospitals,Cnr William and Wellington Street,Perth,WA,6000,(08) 9222 5900,,-31.95118,115.858119,,,,,,,,
Penola Dental Centre,Hospitals,32B Young St,Penola,SA,5277,(08) 8737 3766,,-37.378815,140.838066,,,,,,,,
Pagewood Dental Surgery,Hospitals,,,,,(02) 9349 2387,,,,,,,,,,,
Ormeau Smiles Dental Clinic,Hospitals,176 Pascoe Rd,Ormeau,QLD,4208,(07) 5549 2221,,-27.76404,153.245169,,,,,,,,
Nguyen Tammy Dr,Hospitals,127 Sydney Rd,Coburg,VIC,3058,(03) 9386 1805,,-37.751891,144.964756,,,,,,,,
Nedelkos Dean,Hospitals,25 Weeroo Pl,Stirling,WA,6021,0418 944 759,,-31.88152,115.81609,,,,,,,,
Nambour Hospital Dental Clinic,Hospitals,1 Hospital Rd,Nambour,QLD,4560,(07) 5470 6758,,-26.621514,152.952954,,,,,,,,
Keillor Raymond - Prosthetist,Hospitals,1409 Burke Rd,Kew East,VIC,3102,(03) 9859 8062,,-37.794014,145.063541,,,,,,,,
Joseph Tom Dr,Hospitals,Unit 3 Runaway Oasis 465 Oxley Dr,Runaway Bay,QLD,4216,(07) 5500 5966,,-27.92086,153.38746,,,,,,,,
iCare Dental Studio,Hospitals,26 Stud Rd,Dandenong,VIC,3175,(03) 9791 9688,,-37.983075,145.221517,,,,,,,,
Gold Coast Dental Surgery,Hospitals,122 Olsen Ave,Arundel,QLD,4214,(07) 5571 7878,,-27.944231,153.386043,,,,,,,,
Emergency Service Dulwich Hill,Hospitals,241 Wardell Rd,Dulwich Hill,NSW,2203,(02) 9559 4005,,-33.910462,151.141405,,,,,,,,
Emergency Dental Care,Hospitals,235 Marion Rd,Marleston,SA,5033,0412 220 298,,-34.946,138.55388,1-Oct,,,,,,73 214 097 301,
Eagleby Dental Pty Ltd,Hospitals,Shop 10/ 116-120 River Hills Rd,Eagleby,QLD,4207,(07) 3382 7500,,-27.701767,153.21062,,,,,,,,
Dr. Andre Collins (Dental Surgeon),Hospitals,137 Canterbury Rd,Toorak,VIC,3142,(03) 9571 9016,,-37.842391,145.010296,,,,,,,,
Dr Swann Lam & Associates,Hospitals,Cnr McKay Ct and Wantirna Rd,Ringwood,VIC,3134,(03) 9870 6312,,-37.829984,145.227159,,,,,,,,
Dr Stephen Dudgeon,Hospitals,5 1A Ormuz Ave,Caloundra,QLD,4551,(07) 5491 1536,,-26.803542,153.133276,,,,,,,,
Dr Sen Le,Hospitals,37 Kesteven St,Florey,ACT,2615,(02) 6258 0069,,-35.22556,149.05475,,,,,,,,
Dr Lesley Short Orthodontist,Hospitals,Shop 1 1 Lanyana Way,Noosa Heads,QLD,4567,(07) 5447 5040,,-26.399098,153.091415,,,,,,,,
Dr Annu Gill,Hospitals,51 Myrtle St,Bendigo,VIC,3550,(03) 4433 1053,,-36.765863,144.273166,,,,,,,,
Denture Express Repairs & Replacements,Hospitals,5/ 29 Yirrigan Dr,Mirrabooka,WA,6061,(08) 9344 4744,,-31.870621,115.858019,,,,,,,,
Dentistry By The Park,Hospitals,146 Jasper Rd,Bentleigh,VIC,3204,(03) 9557 3144,,-37.920591,145.041682,,,,,,,,
Dental Lounge,Hospitals,,,,,(02) 9247 8989,,,,,,,,,,,
Dental Implant Solutions,Hospitals,Level 1 Scarborough and Young Street Cnr,Southport,QLD,4215,(07) 5591 2661,,-27.96859,153.414474,,,,,,,,
Dental Design Denture Clinic,Hospitals,,,,,1800 666 610,,,,,,,,,,,
Dentacare,Hospitals,,,,,1800 810 217,,,,,1983,,,,,,
Chan F S Dr,Hospitals,31-35 Burgundy St,Heidelberg,VIC,3084,(03) 9457 5755,,-37.7568,145.06905,,,,,,,,
Casey Dental Group,Hospitals,236 Cranbourne Narre Warren Rd,Narre Warren,VIC,3805,(03) 8786 5582,,-38.052354,145.30281,,,,,,,,
Burgess Michael Dr.,Hospitals,,Narellan,NSW,2567,(02) 4647 1132,,-34.0403082,150.7352013,,,,,,,,
Bendigo Dentist Clinic,Hospitals,429 Hargreaves Stps,Bendigo,VIC,3550,1800 754 671,,-36.7632,144.276319,,,,,,,,
Aspley Dental Group,Hospitals,1344 Gympie Rd,Aspley,QLD,4034,(07) 3161 9623,,-27.364271,153.016176,,,,,,,,
Anna Puzio - ALL DENTAL,Hospitals,11 Myers Lane,Adelaide,SA,5000,0432 451 499,,-34.93399,138.59851,,,,,,,,
Amazing Smiles Bray Park,Hospitals,Shop 15/ 8 Sovereign Ave,Bray Park,QLD,4500,(07) 3205 9869,,-27.297831,152.976112,,,,,,,,
All Star Dental Laboratory,Hospitals,130 Nepean Hwy,Aspendale,VIC,3195,(03) 9587 2791,,-38.025855,145.10085,,,,,,,,
After Hours Dental Emergency Services,Hospitals,58 Oakes Rd,Carlingford,NSW,2118,(02) 9871 1564,,-33.760508,151.041962,,,,,,,,
Adelaide Dental Emergency Services,Hospitals,166 Anzac Hwy,Glandore,SA,5037,(08) 8351 6969,,-34.957069,138.566315,1-Oct,1996,,,,,20 273 785 298,
AA Dental Crisis,Hospitals,,Kenmore,QLD,4069,(07) 3862 1946,,-27.5072678,152.9400179,,,,,,,,
A 7 Day Accident & Emergency Dental,Hospitals,1/ 9 Seven Hills Rd,Baulkham Hills,NSW,2153,(02) 9639 4165,,-33.762411,150.991715,,,,,,,,
18004teethdentists,Hospitals,unit 2 70 Camooweal St,Mt Isa City,QLD,4825,(07) 4743 1777,,-20.727678,139.492857,1-Oct,2014,,,,,86 211 510 499,
Victorian Dermal Group,Hospitals,Level 2 Suite 205 Princess St,Kew,VIC,3101,(03) 9853 9264,,-37.810054,144.966786,,,Active,23 153 666 669,Business Name,50%,,
Star Dental Care,Hospitals,61 Lord St,Port Macquarie,NSW,2444,(02) 6583 6111,,-31.436197,152.917137,1-Oct,2004,Active,79 631 832 963,Business Name,50%,62 558 308 410,
Smile Council Orthodontics,Hospitals,16 Doncaster Rd,Balwyn North,VIC,3104,1300 733 077,,-37.79363,145.06484,,,Active,91 893 766 988,Trading Name,50%,,
Moama Dental Clinic,Hospitals,37B Meninya St,Moama,NSW,2731,(03) 5482 2722,,-36.112757,144.756018,,,Active,30 166 732 752,Business Name,50%,,
Lakes Dental,Hospitals,101 North Lake Rd,South Lake,WA,6164,(08) 9417 2829,,-32.111835,115.83895,,,Active,42 103 087 449,Other Name,50%,,
Hyde Park Dental,Hospitals,227 Cnr Elizabeth &amp; Bathurst St,Sydney,NSW,2000,(02) 9267 9526,,-33.874635,151.209725,,,Active,48 507 191 973,Business Name,50%,,
Grosvenor Place Dental Centre,Hospitals,"Exchange Courtyard, Grosvenor Place, 225 George St",Sydney,NSW,2000,(02) 9251 8889,,-33.863319,151.206691,,,Active,22 071 697 473,Trading Name,50%,,
Gentle Dental Care 7 Days,Hospitals,158 Remembrance Drwy,Tahmoor,NSW,2573,(02) 4681 8384,,-34.226634,150.591855,,,Active,70 116 316 495,Business Name,50%,,
Gentle Dental Care,Hospitals,31-35 Chamberlain St,Campbelltown,NSW,2560,(02) 4629 1900,,-34.062979,150.822038,,,Active,91 094 508 166,Business Name,50%,,
Gentle Dental Care,Hospitals,229 Macquarie St,Liverpool,NSW,2170,(02) 9602 3339,(02) 9620 3182,-33.923033,150.923248,21-50,,Active,91 094 508 166,Business Name,50%,,
First Impressions,Hospitals,8/ 157 Gladstone Rd,Rivervale,WA,6103,0419 440 188,,-31.966999,115.916491,,,Active,98 082 184 820,Other Name,50%,,
Dentures By Design,Hospitals,219A Main St,Osborne Park,WA,6017,(08) 9440 4699,,-31.89688,115.827857,,,Active,42 235 935 096,Business Name,50%,,
Denture Clinic,Hospitals,207 Drummond St South,Ballarat,VIC,3350,(03) 5331 5196,,-37.565349,143.846611,,,Active,44 112 886 487,Other Name,50%,,
Chatswood Dental,Hospitals,Suite 205 Lvl 2/7 Help St,Chatswood,NSW,2067,(02) 9411 6300,,-33.795558,151.180291,,1996,Active,92 124 730 874,Business Name,50%,,
Awesome Smiles Dental,Hospitals,40 Park St,Sydney,NSW,2000,(02) 8677 0853,,-33.872935,151.208615,,,Active,66 159 829 348,Business Name,50%,,
Ashmore Dental,Hospitals,Suite 1 115 Currumburra Rd,Ashmore,QLD,4214,(07) 5539 2944,,-27.987292,153.382341,,,Active,63 776 869 715,Trading Name,50%,,
A-AABACUS Dental Emergency Service,Hospitals,,Ryde,NSW,2112,(02) 9418 6549,,-33.8135042,151.1057327,1-Oct,,Active,30 732 705 915,Business Name,50%,30 732 705 915,
Woodford Dental,Hospitals,117 Archer St,Woodford,QLD,4514,(07) 5422 9380,,-26.955174,152.778712,,,Active,19 207 040 031,Business Name,75%,,
Ocean Reef Dental Surgery,Hospitals,Unit 2/ 64 Marina Bvd,Ocean Reef,WA,6027,(08) 6206 4000,,-31.765711,115.742226,1-Oct,,Active,18 295 437 335,Trading Name,75%,18 295 437 335,
Monash Health,Hospitals,55 Buckingham Ave,Springvale,VIC,3171,(03) 8558 9165,,-37.952974,145.15118,,,Active,82 142 080 338,Entity Name,75%,,
Jansz Dental,Hospitals,,BRISBANE,QLD,4000,,,-27.47002735,153.0229763,1-Oct,1996,Active,98 074 027 768,Business Name,75%,98 074 027 768,
Gentle Dental Care 7 Days,Hospitals,Stockland Shop 208 561-583 Polding St,Prairiewood,NSW,2176,(02) 9604 6611,,-33.858692,150.898743,,,Active,70 116 316 495,Business Name,75%,,
Gateway Dental,Hospitals,Gateway Building/ Suite 15/ Andrea Lane Lane,Booragoon,WA,6154,(08) 9316 2811,,-32.03515473,115.8338917,,,Active,73 619 289 799,Business Name,75%,,
Clarkson North Dental Care,Hospitals,Unit 14/ 30 Ainsbury Parade,Clarkson,WA,6030,(08) 9304 6624,(08) 9304 6515,-31.67924,115.71753,,,Active,16 037 075 319,Business Name,75%,16 037 075 319,
Brighter Smiles Dapto Dental,Hospitals,54 Baan Baan St,Dapto,NSW,2530,(02) 4261 5264,,-34.49289,150.796154,Nov-20,,Active,57 167 430 866,Business Name,75%,,
Aim Dental Group,Hospitals,391 Oxford St,Mt Hawthorn,WA,6016,(08) 9444 1035,,-31.9238,115.840873,,,Active,91 613 227 295,Business Name,75%,,
Accessible All Hours Dental Service,Hospitals,,Chatswood,NSW,2067,(02) 9411 8053,,-33.7960783,151.1830913,,,Active,30 732 705 915,Business Name,75%,,
About Smiles,Hospitals,63A Archer St,Chatswood,NSW,2067,(02) 9415 3555,,-33.796555,151.186237,,,Active,99 837 712 433,Business Name,75%,,
A-AABACUS Dental Emergency Service,Hospitals,,Wahroonga,NSW,2076,(02) 9418 6549,,-33.718331,151.1168301,1-Oct,,Active,30 732 705 915,Business Name,75%,30 732 705 915,
A-AABACUS Dental Emergency Service,Hospitals,,Gordon,NSW,2072,(02) 9418 6549,,-33.7555157,151.1521331,1-Oct,,Active,30 732 705 915,Business Name,75%,30 732 705 915,
A-AABACUS Dental Emergency Service,Hospitals,,Chatswood,NSW,2067,(02) 9418 6549,,-33.7960783,151.1830913,1-Oct,,Active,30 732 705 915,Business Name,75%,30 732 705 915,
Tigris Medical Dental Centre,Hospitals,,Liverpool,NSW,2170,(02) 8776 1000,,-33.9200192,150.9241267,,,Active,21 122 238 126,Business Name,100%,,
Thornbury Smiles,Hospitals,412 Station St,Thornbury,VIC,3071,(03) 9480 5550,,-37.75876,145.02146,,,Active,26 862 995 995,Trading Name,100%,,
The Family Dental Caboolture,Hospitals,8-22 King St,Caboolture,QLD,4510,(07) 5428 2277,,-27.085427,152.953353,,,Active,28 388 050 258,Business Name,100%,,
Smilefast Pty Ltd,Hospitals,875 Glenhuntly Rd,Caulfield,VIC,3162,1300 447 448,,-37.886927,145.025574,,,Active,68 131 549 730,Entity Name,100%,,
Project Outback Dental,Hospitals,49 Althaus Parade,Yabulu,QLD,4818,(07) 4778 6387,,-19.188784,146.578584,,,Active,44 805 959 953,Business Name,100%,,
Plumpton Marketplace Dental Centre,Hospitals,Plumpton Marketplace Shopng Cntr Cnr Jersey and Hyatts Road,Plumpton,NSW,2761,(02) 9625 3432,,-33.74532,150.835737,,,Active,48 087 317 619,Business Name,100%,,
Parkview Dental,Hospitals,20 Commercial Rd,Melbourne,VIC,3004,(03) 9867 1818,,-37.84499,144.979797,,,Active,44 129 490 624,Business Name,100%,,
Oatlands Dental,Hospitals,"42 Belmore Street E, Oatlands",Oatlands,NSW,2117,(02) 9630 6333,,-33.797466,151.026086,,,Active,18 603 278 137,Business Name,100%,,
Nitin Patel,Hospitals,25 Pearson St,Charlestown,NSW,2290,(02) 4943 3366,,-32.962889,151.695646,,,Active,85 194 053 494,Entity Name,100%,,
Night & Day Family Dental Practice,Hospitals,902 King Georges Rd,South Hurstville,NSW,2221,(02) 9547 2367,,-33.97996,151.10747,,,Active,94 937 505 857,Business Name,100%,,
Minchinbury No Gap Dental,Hospitals,"Shop 17 Minchinbury Shopping Centre, Minchin Drive",Minchinbury,NSW,2770,(02) 9832 2822,,-33.787749,150.834998,,,Active,75 062 223 465,Business Name,100%,,
Millennium Dental Care,Hospitals,"Street Level, 24 Spit Rd",Mosman,NSW,2088,(02) 9969 5572,,-33.82397,151.24112,,,Active,73 742 217 922,Business Name,100%,,
MGA Dental,Hospitals,Cnr Pinelands &amp; Seeana Street 202 Pinelands Rd,Sunnybank Hills,QLD,4109,(07) 3273 3343,,-27.602822,153.056708,1-Oct,2002,Active,38 936 103 949,Trading Name,100%,64 614 868 466,
Margaret River Dental Services,Hospitals,79 Town View Tce,Margaret River,WA,6285,(08) 9757 2010,,-33.953305,115.075273,,,Active,90 502 544 268,Trading Name,100%,,
Manning Valley Dental,Hospitals,1 Manning St,Taree,NSW,2430,(02) 6552 1026,,-31.913344,152.462512,1-Oct,,Active,34 792 415 369,Business Name,100%,34 792 415 369,
Kenmore Dentists,Hospitals,Shop 1/ 4 Wongabel St,Kenmore,QLD,4069,(07) 3378 6297,,-27.508976,152.94805,,,Active,56 136 416 156,Business Name,100%,,
Kapovich Dental Laboratory Pty Ltd,Hospitals,147 Spencer St,South Bunbury,WA,6230,(08) 9721 6584,,-33.339402,115.640631,,,Active,80 071 926 942,Entity Name,100%,,
Jansz Dental,Hospitals,6/699 Sherwood Rd,Sherwood,QLD,4075,(07) 3379 3853,,-27.53174,152.98061,1-Oct,1996,Active,98 074 027 768,Business Name,100%,98 074 027 768,
Helena Street Dental Clinic,Hospitals,2/42 Victoria St,Midland,WA,6056,(08) 9250 3100,(08) 9250 5892,-31.89112,116.00326,1-Oct,1980,Active,72 693 934 973,Business Name,100%,,
Foothills Denture Clinic,Hospitals,4/ 16 The Avenue,Midland,WA,6056,(08) 9250 1733,,-31.88842,116.00757,,,Active,81 009 044 562,Business Name,100%,,
Eltham Family Dental,Hospitals,Level 1 Suite 1 23 Dudley St,Eltham,VIC,3095,(03) 9439 6517,,-37.715515,145.150006,1-Oct,1988,Active,16 632 147 112,Business Name,100%,16 632 147 112,
Dentist at Care,Hospitals,Suite 9 2 Redleaf Ave,Wahroonga,NSW,2076,(02) 9989 8966,,-33.71872,151.1177,,,Active,21 870 351 141,Business Name,100%,,
Dayboro Dental Centre,Hospitals,5-7 Delaney Rd,Dayboro,QLD,4521,(07) 3425 1099,,-27.197118,152.819872,,,Active,56 782 276 374,Business Name,100%,,
Complete Smiles,Hospitals,"Suite 1, 632 Darling Street",Rozelle,NSW,2039,(02) 9818 4464,,-33.86251,151.17119,,,Active,82 115 786 831,Business Name,100%,,
Coburg Denture Clinic,Hospitals,"Nr Coles, Foleys Mall 441 Sydney Rd",Coburg,VIC,3058,0414 518 789,,-37.74278,144.96592,,,Active,97 590 966 929,Business Name,100%,,
City Gentle Dental,Hospitals,"Ground Floor, 175 Liverpool St, Sydney 2000 (Inside Hyde Park Medical Centre)",Sydney,NSW,2000,(02) 9268 0321,(02) 8078 5189,-33.877168,151.210637,1-Oct,1999,Active,15 088 357 975,Business Name,100%,15 088 357 975,088 357 975
City Dental Care Cosmetic Centre,Hospitals,302/ 620 Bourke St,Melbourne,VIC,3000,(03) 9998 2636,,-37.816254,144.955337,,,Active,28 497 420 357,Business Name,100%,,
After Hours Dental Emergency Service-Eastern Suburbs,Hospitals,251 Oxford St,Bondi Junction,NSW,2022,(02) 9387 4777,,-33.891642,151.252472,,,Active,40 566 846 413,Other Name,100%,,
Accessible All Hours Dental Service,Hospitals,272 Burns Bay Rd,Lane Cove,NSW,2066,(02) 9418 6549,,-33.818493,151.151582,1-Oct,,Active,30 732 705 915,Business Name,100%,30 732 705 915,
YAAS Dental Care,Hospitals,407 Princes Hwy,Narre Warren,VIC,3805,(03) 8774 2115,,-38.021464,145.299131,,,,,,,,
Toothsavers Dental Services Pty Ltd,Hospitals,Shp 36 11 Main Street,Mt Annan,NSW,2567,(02) 4647 5555,,-34.048576,150.759087,,,,,,,,
The Gentle Dentist,Hospitals,Suite 5 G/Flat 377 Sussex St,Sydney,NSW,2000,(02) 9267 7174,,-33.87725,151.20442,,,,,,,,
Sydney Smile Centres,Hospitals,16 Maroubra Rd,Pagewood,NSW,2035,(02) 9349 2387,,-33.940058,151.228384,,,,,,,,
Spyrakis T,Hospitals,400 Forest Rd,Bexley,NSW,2207,(02) 9567 4151,,-33.94931,151.12739,,,,,,,,
Shellharbour City Dental,Hospitals,"Shop 1024, Stockland Centre New Lake Entrance Rd",Shellharbour,NSW,2529,(02) 4297 1978,,-34.563424,150.83869,1-Oct,2012,,,,,73 154 413 180,154 413 180
Runcorn Dental,Hospitals,Runcorn Plaza Shop 15 258 Warrigal Rd,Runcorn,QLD,4113,(07) 3841 3960,,-27.588823,153.084287,,1991,,,,,33 102 624 840,
Remote Dental,Hospitals,Lot 802 Anzac Parade,Paraburdoo,WA,6754,0400 473 441,,-23.199361,117.67216,,,,,,,,
Red Apple Dental Care,Hospitals,Unit 2 4 Wade Ct,Girrawheen,WA,6064,(08) 9342 2205,,-31.83789,115.83918,,,,,,,,
Melbourne Dental Vision,Hospitals,513 Princess Hwy,Narre Warren,VIC,3805,(03) 9705 6500,,-38.027398,145.310717,,,,,,,,145 759 771
Karwarz D,Hospitals,21/19 Atchison St,Wollongong,NSW,2500,(02) 4226 9899,,-34.42733,150.89099,,,,,,,,
Ironside Advanced Dental,Hospitals,2 281 Sussex Street Rd,Sydney,NSW,2000,(02) 9267 3495,,-33.873651,151.20689,,,,,,,,
GC Dental,Hospitals,Lvl 6 229 Macquarie St,Sydney,NSW,2000,(02) 9222 9999,,-33.86858,151.211812,,,,,,,,
Fresh Smiles Orthodontics,Hospitals,84 Aphrasia St,Newtown,VIC,3220,(03) 5244 4466,,-38.149827,144.33742,,,,,,,,
'Fill The Gap' Hygienist - Therapist Recuitment Agency,Hospitals,,Brunswick,VIC,3056,0405 229 226,,-37.767872,144.961929,,,,,,,,
Dr Christopher Potter,Hospitals,148 New South Head Rd,Edgecliff,NSW,2027,0418 825 977,,-33.87846,151.235866,,,,,,,,
Direct Denture Care,Hospitals,217 Wanneroo Rd,Balcatta,WA,6021,(08) 9401 1195,,-31.88857,115.836896,,,,,,,,
Dentalini,Hospitals,118 Alfred St,Milsons Point,NSW,2061,(02) 8920 3000,,-33.84394,151.21036,,,,,,,,
Cronulla Beach Dental,Hospitals,18 Laycock Ave,Cronulla,NSW,2230,(02) 9523 5625,,-34.057017,151.152237,,,,,,,,
Coolangatta Dental Group,Hospitals,144 Murwillumbah St,Murwillumbah,NSW,2484,(02) 6672 1068,,-28.32659,153.394871,,,,,,,,
Bupa Dental,Hospitals,402 South Rd,Moorabbin,VIC,3189,(03) 9103 2407,,-37.934011,145.039732,,,,,,,,
Bupa Dental,Hospitals,"Westfield Hornsby, Level 3 Near Target 236 Pacific Hwy",Hornsby,NSW,2077,(02) 9477 2100,,-33.704862,151.100182,,,,,,,,
A-Smile Dental,Hospitals,31 York St,Taree,NSW,2430,(02) 6551 0427,,-31.909887,152.453878,,,,,,,,
After Hours Dental Emergency,Hospitals,61 Rawson St,Epping,NSW,2121,0414 711 668,,-33.771516,151.079994,,,,,,,,
A.B. Bondi Dental Laboratories,Hospitals,177 Bondi Rd,Bondi,NSW,2026,(02) 9389 4929,,-33.89427,151.26439,,,,,,,,
A Able Beverly Hills Dental Emergency Services,Hospitals,419 King Georges Rd,Beverly Hills,NSW,2209,0407 785 800,,-33.949523,151.080825,,,,,,,,
24 Hour Dentist,Hospitals,1/1 Wrights Rd,Drummoyne,NSW,2047,(02) 9977 7056,,-33.850723,151.154725,,,,,,,,
24 / 7 Dental,Hospitals,73 Keys Rd,Moorabbin,VIC,3189,(03) 9044 0777,,-37.948448,145.066934,,,,,,,,
Yaghi Irena Dr,Hospitals,11 Selems Parade,Revesby,NSW,2212,(02) 9792 6633,,-33.951253,151.014959,,,,,,,,
Wynyard Dental Clinic,Hospitals,131 Clarence St,Sydney,NSW,2000,(02) 9262 5331,,-33.86738,151.20477,1-Oct,1995,,,,,,
Wynyard Dental Clinic,Hospitals,131 Clarence St,Sydney,NSW,2000,(02) 9262 5331,,-33.867378,151.204754,1-Oct,1995,,,,,81 305 085 592,
Wynyard Dental Clinic,Hospitals,131 Clarence Street,Sydney,NSW,2000,(02) 8302 8015,,-33.867378,151.204754,1-Oct,1995,,,,,81 305 085 592,
Wong F K S K,Hospitals,,Leumeah,NSW,2560,(02) 4625 3830,,-34.0516761,150.830568,,,,,,,,
Wisdom Teeth Professionals The,Hospitals,412 Collins St,Melbourne,VIC,3000,1300 217 858,,-37.81699,144.960489,,,,,,,,
Willis Ian,Hospitals,114 Head St,Brighton,VIC,3186,(03) 9596 6611,,-37.89272,144.99658,,,,,,,,
Wamuran Dental Centre,Hospitals,Shop 5 1102-1110 D'aguilar Hwy,Wamuran,QLD,4512,(07) 5496 6888,,-27.039563,152.858591,,,,,,,,
VISION DENTAL,Hospitals,Vision Dental,Menai,NSW,2234,(02) 9543 4222,,-34.01283216,151.017445,,,,,,,,
Turk Carlos Dr,Hospitals,17 Gerard St,Cremorne,NSW,2090,(02) 9953 4189,,-33.82894,151.22586,,,,,,,,
Tuan Tran Dr,Hospitals,68 Derby St,Kingswood,NSW,2747,(02) 4737 3377,,-33.761365,150.711972,,,,,,,,
Ton Genevieve,Hospitals,402 Concord Rd,Concord West,NSW,2138,(02) 9743 2262,,-33.837865,151.087418,,,,,,,,
The Healthy Tooth Team,Hospitals,17 Ryedale Rd,West Ryde,NSW,2114,(02) 9809 7479,,-33.807764,151.09095,,,,,,,,
The Family Dentist,Hospitals,156 Pendle Way,Pendle Hill,NSW,2145,(02) 9631 0988,,-33.801127,150.955562,,,,,,,,
The Emergency Dentist Sydney,Hospitals,Suite 601a 185 Elizabeth St,Sydney,NSW,2000,(02) 8283 6493,,-33.872385,151.209621,,,,,,,,
The Dental Surgery,Hospitals,23 Cook Parade,St Clair,NSW,2759,(02) 9670 6266,,-33.79924,150.77715,,,,,,,,
Taylor Dental Implants and Aesthetics,Hospitals,Robina Quays Shopping Centre Shop 12 361 Robina Pkwy,Robina,QLD,4227,(07) 5648 0909,,-28.071441,153.393881,,,,,,,,
Tarneit Dental Care,Hospitals,429 Sayers Rd,Hoppers Crossing,VIC,3029,(03) 9749 4491,,-37.850586,144.702156,,,,,,,,
Sydney Smile Care,Hospitals,201 Railway Parade,Cabramatta,NSW,2166,(02) 9727 6688,,-33.89497,150.93824,,,,,,,,
Surfers Paradise Dental Equipment Service,Hospitals,10 Castlerock St,Parkwood,QLD,4214,(07) 5594 0610,,-27.955217,153.375886,,,,,,,,
Sunshine Coast Smile Centre,Hospitals,"Level 2, Cnr The Esplanade and Second Ave,",Cotton Tree,QLD,4558,(07) 5443 2800,(07) 5443 3822,-26.654742,153.096068,1-Oct,2007,,,,,63 710 936 195,
Studfield Dental Group,Hospitals,8/249 Stud Rd,Wantirna South,VIC,3152,(03) 9887 0888,(03) 9801 0711,-37.860929,145.240042,1-Oct,1989,,,,,28 427 364 968,
Springdale Family Dental,Hospitals,31 High St,Drysdale,VIC,3222,(03) 5251 1907,,-38.174918,144.56894,,,,,,,,
Sparkle Dental care Bayside.,Hospitals,33 Willis St,Hampton,VIC,3188,(03) 9598 5505,,-37.936188,145.001957,,,,,,,,
South Terrace Dental Centre,Hospitals,74 South Tce,South Perth,WA,6151,(08) 9367 9400,,-31.988297,115.862995,,,,,,,,
Smile Science Denture Clinic,Hospitals,4 Quality Way,Mitcham,VIC,3132,(03) 9872 3087,,-37.816855,145.193358,,,,,,,,
Sing Sing Dental Clinic,Hospitals,8/ 478 William St,Perth,WA,6000,(08) 9328 9693,,-31.941363,115.863804,,,,,,,,
Rosalie Dental,Hospitals,7/ 165 Baroona Rd,Paddington,QLD,4064,(07) 3369 5711,,-27.46588,152.99672,,,,,,,,
Rod Herbert Denture Clinic,Hospitals,199 High St,Fremantle,WA,6160,(08) 9335 3317,,-32.053035,115.7499073,,,,,,,,
Riverina Smiles Dentist,Hospitals,54 Denison St,Finley,NSW,2713,(03) 5883 4832,,-35.641759,145.576364,,,,,,,,
Railway Street Dental Surgery,Hospitals,6 Railway St,Southport,QLD,4215,(07) 5531 2053,,-27.962787,153.412622,,,,,,,,
Pyrmont Dental Health,Hospitals,Suite 3 / 19 Harris St,Pyrmont,NSW,2009,(02) 9518 6262,,-33.86628,151.19192,,,,,,,,
Priority Dental Pty Ltd,Hospitals,73 Marion St,Harris Park,NSW,2150,(02) 9633 3805,,-33.822773,151.009739,,,,,,,,
Perth Dental Clinic,Hospitals,170 Brisbane St,Perth,WA,6000,89377777,,-31.943237,115.86392,,,,,,,,
Pendle Hill Family Dental Clinic,Hospitals,156 Pendle Way,Pendle Hill,NSW,2145,(02) 9630 4631,,-33.801127,150.955562,1-Oct,,,,,,52 098 348 098,
Pendle Hill Family Dental Centre,Hospitals,156 Pendle Way,Pendle Hill,NSW,2145,(02) 9369 7050,,-33.801127,150.955562,,,,,,,,
Pagewood Dental Surgery,Hospitals,,Maroubra,NSW,2035,(02) 9327 7732,,-33.9420292,151.2383355,,,,,,,,
Northern Beaches Dental Emergency Service,Hospitals,685 Pittwater Rd,Dee Why,NSW,2099,(02) 9971 6350,,-33.75309,151.28544,,1998,,,,,,
Nimb Dental Clinic,Hospitals,63 Denison St,Finley,NSW,2713,(03) 5883 1633,,-35.642171,145.57527,,,,,,,,
Nicholas Calpis,Hospitals,"Commonwealth Bank Building,377 Anzac Pde",Kingsford,NSW,2032,(02) 9663 0509,,-33.92442,151.22757,,,,,,,,
Ngo James,Hospitals,14 Burwood Rd,Burwood,NSW,2134,(02) 9747 1988,,-33.869882,151.105477,,,,,,,,
Navea Enrico A. Dr,Hospitals,25 Mossberry St,Blair Athol,NSW,2560,(02) 4620 4597,,-34.06462,150.80135,,,,,,,,
Myles Lear Dr,Hospitals,Cremorne Town Centre Shop 6 287 Military Rd,Cremorne,NSW,2090,(02) 9953 0895,,-33.82882,151.22979,,,,,,,,
Mydenture Clinic - Mudgee,Hospitals,342 Frome St,Mudgee,NSW,2850,0414 408 090,,-32.590521,149.588761,,,,,,,,
Mydenture Clinic,Hospitals,159 Maitland St,Narrabri,NSW,2390,0414 408 090,,-30.324241,149.78202,,,,,,,,
Mydenture clinic,Hospitals,94 Taylor St,Glen Innes,NSW,2370,0414 408 090,,-29.732549,151.732085,,,,,,,,
Mouthguards Melbourne,Hospitals,378 Canterbury Rd,Surrey Hills,VIC,3127,1300 508 553,,-37.826217,145.097393,,,,,,,,
Mount Pleasant Dental,Hospitals,860 Canning Hwy,Applecross,WA,6153,(08) 9364 5580,(08) 9364 5580,-32.014565,115.844324,,,,,,,56 516 807 050,
Marrickville Dental Care,Hospitals,Shop 4/ 296 Marrickville Rd,Marrickville,NSW,2204,(02) 9569 2561,,-33.910532,151.155922,,,,,,,,
Luisa Sanin,Hospitals,55 Claremont St,South Yarra,VIC,3141,(03) 8772 5111,,-37.836197,144.993721,,,,,,,,
Lui Dr Pinky,Hospitals,Suite GO 4/ 10 Edgeworth David Ave,Hornsby,NSW,2077,(02) 9476 6265,,-33.70581,151.09971,,,,,,,,
LifeCare Dental Kingsway,Hospitals,168 Wanneroo Rd,Madeley,WA,6065,(08) 9309 7300,,-31.819243,115.823973,21-50,1989,,,,,39 261 217 613,
Lee Matthew Dr,Hospitals,3/ 14 Ethel St,Eastwood,NSW,2122,(02) 9858 3000,,-33.78966,151.08388,,,,,,,,
Laser Root Canal,Hospitals,Lvl 4/ 307 Pitt St,Sydney,NSW,2000,(02) 9268 0778,,-33.87356,151.20806,,,,,,,,
Kumar Yogesh,Hospitals,18 Flushcombe Rd,Blacktown,NSW,2148,0409 304 495,,-33.770341,150.908207,,,,,,,17 909 831 694,
Klimowitsky Simon,Hospitals,955 Centre Rd,Bentleigh East,VIC,3165,0413 169 833,,-37.922845,145.074561,,,,,,,,
Kim Michael Dr,Hospitals,"Suite 2, 31 Terminus",Castle Hill,NSW,2154,(02) 9899 1404,,-33.73522,151.00492,,,,,,,,
Hitek Family Dental Care,Hospitals,82 Byng St,Orange,NSW,2800,(02) 6362 1987,,-33.281328,149.096318,,,,,,,,
Harrington Park Dental Care,Hospitals,Shop 15c Harrington Park Plaza 23 Fairwater Dr,Harrington Park,NSW,2567,(02) 4647 9768,,-34.028455,150.733899,,,,,,,,
Gregory S. Sharman,Hospitals,,Frankston,VIC,3199,0418 534 624,,-38.1413993,145.1224639,,,,,,,,
George St Dental Surgery,Hospitals,195 George St,Bathurst,NSW,2795,(02) 6331 7477,,-33.41793,149.576451,,,,,,,,
Gazelakis Tim,Hospitals,266 Moreland Rd,Brunswick,VIC,3056,(03) 9314 2741,,-37.75493,144.95759,,,,,,,,
Fremantle Dentures,Hospitals,1st Floor 120 High St,Fremantle,WA,6160,(08) 9430 8676,,-32.054107,115.747035,,,,,,,,
Family Dental Care in Melbourne from Tarneit Smiles,Hospitals,937 Sayers Rd,Tarneit,VIC,3029,(03) 8742 4788,,-37.845389,144.655011,,,,,,,,
Emergency Dentistry Sydney,Hospitals,307 Pitt St,Sydney,NSW,2000,(02) 9283 7220,,-33.873615,151.207772,,,,,,,,
Emergency Dental Services,Hospitals,95A Blaxland Rd,Ryde,NSW,2112,(02) 9809 3574,,-33.813438,151.106164,1-Oct,,,,,,63 137 065 813,
East Bentleigh Dental Group,Hospitals,781 Centre Rd,Bentleigh East,VIC,3165,(03) 9575 1100,,-37.920797,145.058159,,,,,,,,
Dr. Tim Hart,Hospitals,Gallery Arcade 445 Victoria Ave,Chatswood,NSW,2067,(02) 9412 2295,,-33.79624,151.18191,,,,,,,,
Dr. S. Jacobson & Dr. B. Kolber Dentistry,Hospitals,281 Orrong Rd,St Kilda East,VIC,3183,(03) 9527 2273,,-37.867226,145.008886,,,,,,,,
Dr. Ritesh Barua,Hospitals,Entry Via Daisy Street Unit 3 82-84 Princes Hwy,Fairy Meadow,NSW,2519,(02) 4244 1930,,-34.392485,150.893546,,,,,,,,
Dr Parisa Javady,Hospitals,55 Railway St,Corrimal,NSW,2518,(02) 4285 1222,,-34.373429,150.899485,,,,,,,,
Dr Parisa Javady,Hospitals,20-22 Underwood St,Corrimal,NSW,2518,(02) 4285 1222,,-34.369858,150.896473,,,,,,,,
Dr Mohammed Sohail Memon,Hospitals,"Mount Druitt Dental, Shopsmart Medical Hub,Suite G 5, Mb 2, Westfield Mt Druitt, Cnr Castle Ave and Luxford Rd",Mt Druitt,NSW,2770,(02) 9042 1830,,-33.7661803,150.816708,,,,,,,,
Dr Mohammed Sohail Memon,Hospitals,Westfield Mt Druitt Cnr Castle Ave and Luxford Rd,Mt Druitt,NSW,2770,(02) 9042 1830,,-33.7659155,150.8187105,,,,,,,,
Dr Mohammed Sohail Memon,Hospitals,"Haside Australia, Unit 2 (Inside Universal Dental Centre), 18 Carlton Street",Granville,NSW,2142,0474 180 005,,-33.833396,151.009245,,,,,,,,
Dr Mohammed Sohail Memon,Hospitals,Universal Dental Centre 18 Carlton Street,Granville,NSW,2142,(02) 9637 1084,,-33.833396,151.009245,,,,,,,,
Dr Leo Wilkinson,Hospitals,47 Kirkwood Rd,Tweed Heads South,NSW,2486,(07) 5523 1666,,-28.19838,153.54458,,,,,,,,
Diamond Creek Family Dental,Hospitals,94 Main Hurstbridge Rd,Diamond Creek,VIC,3089,(03) 9438 3438,,-37.674855,145.161648,,,,,,,,
Denture Professionals Perth,Hospitals,24/ 53 Cecil Ave,Cannington,WA,6107,(08) 9451 1477,,-32.01473,115.941391,,,,,,,,
Denture Emergency Repairs,Hospitals,265A Bambra Rd,Caulfield South,VIC,3162,0425 854 612,,-37.892167,145.027574,,,,,,,,
Dentists Chair The,Hospitals,Suite 6 Barkly Square 55 Barkly St,Mornington,VIC,3931,(03) 5977 1507,,-38.22163,145.03871,,,,,,,,
Dentex Rockdale,Hospitals,7 The Seven Way,Rockdale,NSW,2216,(02) 8567 6155,,-33.952813,151.136898,,,,,,,,
Dental Art Centre,Hospitals,31 Haldon St,Lakemba,NSW,2195,(02) 9759 4344,,-33.918725,151.07678,1-Oct,,,,,,,
Dental After Hours Emergency Service,Hospitals,246 Glebe Point Rd,Glebe,NSW,2037,(02) 9692 0333,,-33.874767,151.182646,,,,,,,,
Dental After Hours Emergency,Hospitals,6 Bridge St,Lidcombe,NSW,2141,0412 160 047,,-33.864552,151.043326,,,,,,,,
Dental After Hours Emergency,Hospitals,10/ 103 Majors Bay Rd,Concord,NSW,2137,0412 160 047,,-33.85482,151.1034,,,,,,,,
Del Vecchio Joseph A,Hospitals,Unit 9/ 83 George St,Parramatta,NSW,2150,(02) 9635 4208,,-33.81497,151.00736,,,,,,,44 364 405 884,
Del Solar Paul Dr,Hospitals,58 Queen St,Berry,NSW,2535,(02) 4464 1055,,-34.775299,150.692794,,,,,,,,
Davies R T,Hospitals,110 Doveton St South,Ballarat,VIC,3350,0400 278 667,,-37.564938,143.854178,,,,,,,,
Darling Range Dentures,Hospitals,6170 Great Eastern Hwy,Mundaring,WA,6073,(08) 9295 2815,,-31.901622,116.155048,,,,,,,,
Craig P Whitehead Denture Clinic,Hospitals,57 James St,Northcote,VIC,3070,(03) 9482 4822,,-37.775241,144.999833,,,,,,,,
Coorparoo Smile Dental,Hospitals,Lvl 1/ 387 Cavendish Rd,Coorparoo,QLD,4151,(07) 3397 6670,,-27.507235,153.063355,,,,,,,,
Con Paul Melas,Hospitals,127 Belmore Rd,Randwick,NSW,2031,(02) 9398 4414,,-33.916065,151.240978,,,,,,,,
"Classic Smiles, Fine Cosmetic & Implant Dentistry",Hospitals,101F Menai Central,Menai,NSW,2234,(02) 9543 6666,,-34.0158719,151.0127218,,,,,,,,
Classic Smiles Dental,Hospitals,"101 Menai Central, Cnr Menai and Carter Rds,",Menai,NSW,2234,(02) 9543 6666,,-34.016405,151.013076,,,,,,,,
City Smile Dental Centre,Hospitals,Suite 3 Level 3 60 Park St,Sydney,NSW,2000,(02) 9264 1592,,-33.87306,151.2097,,,,,,,,
Cherry Jo-Anne Dr,Hospitals,6th Flr 15 Collins St,Melbourne,VIC,3000,(03) 9650 2863,,-37.81385,144.97337,,,,,,,,
Chatswood Dental Clinic,Hospitals,695 Pacific Hwy,Chatswood,NSW,2067,(02) 8078 6611,,-33.800881,151.17993,,,,,,,,
"Chapman L, Chen M, Habibi B, Habibi M, DeSouza S, Toigo R, Harichandran R",Hospitals,"St Ives, St Ives Shopping Village, G 3/166 Mona Vale Rd",St Ives,NSW,2075,(02) 9983 1166,,-33.729395,151.15821,,,,,,,,
Central Smiles,Hospitals,19 Martin Pl,Sydney,NSW,2000,(02) 8766 0452,,-33.868478,151.209236,,,,,,,,
Central Brisbane Dental,Hospitals,Suite 5 Manor Apartments 289 Queen St,Brisbane,QLD,4000,(07) 3221 8816,,-27.467691,153.028263,,,,,,,,
Casiglia Mark,Hospitals,1 Finlayson St,Lane Cove,NSW,2066,(02) 9420 5050,,-33.813181,151.168821,,,,,,,,
Canceri. A,Hospitals,"8th Floor, Suite 813 St James Trust Bldg 185 Elizabeth St",Sydney,NSW,2000,(02) 9264 1592,,-33.87239,151.20962,,,,,,,,
Bush D. Erika Dr & Associates,Hospitals,76 Yarrara Rd,Pennant Hills,NSW,2120,(02) 9484 5198,,-33.737804,151.071714,,,,,,,,
Broadwalk Dental Services,Hospitals,Suite 11/ 458 High St,Penrith,NSW,2740,1800 226 688,,-33.75366,150.6961,,,,,,,,
Blue Gum Dental Clinic,Hospitals,Basement 64 Cranford Ave,Mt Pleasant,WA,6153,(08) 9316 2603,,-32.04103,115.84955,,,,,,,,
Bite Wise,Hospitals,,Duncraig,WA,6023,(08) 9447 6444,,-31.8341204,115.7835905,,,,,,,,
Bangor Dental 121 yala and Menai road Bangor suite 3 Level 1,Hospitals,Bangor Shopping Centre Ground Floor Suite 3 121 Yala Rd,Bangor,NSW,2234,(02) 9543 1897,,-34.018105,151.029097,,,,,,,,
Bangor Dental,Hospitals,Bangor Shopping Centre Level 1 121 Yala Rd,Bangor,NSW,2234,(02) 9543 1897,,-34.018105,151.029097,,,,,,,,
Bachmayer Orthodontic Clinic,Hospitals,13 Grose St,Parramatta,NSW,2150,(02) 9498 7792,,-33.806712,151.003623,,,,,,,,
Australian Dental Association (NSW Branch) Ltd The,Hospitals,69 Nicholson St,St Leonards,NSW,2065,(02) 8436 9900,,-33.824845,151.197201,,,,,,,,
Aura Dental Boutique & Clinic,Hospitals,Shop 8a 2-4 High St,Bayswater,VIC,3153,(03) 9738 0088,,-37.841942,145.265757,,2009,,,,,,
Ashwood Dental Laboratory,Hospitals,487 Warrigal Rd,Ashwood,VIC,3147,(03) 9885 9199,,-37.86398,145.09352,,,,,,,,
Ashdental,Hospitals,469 Warrigal Rd,Ashwood,VIC,3147,(03) 9885 3699,,-37.862769,145.09341,,,,,,,,
All Day Everyday Dental Emergency,Hospitals,117 Barkers Rd,Kew,VIC,3101,(03) 9853 1811,,-37.81342,145.02848,,,,,,,,
After Hours Dentist,Hospitals,19a/ 397 New South Head Rd,Double Bay,NSW,2028,0433 023 207,,-33.878135,151.24302,,,,,,,,
After Hours Dental Emergency Willoughby,Hospitals,,Chatswood,NSW,2067,(02) 9958 6458,,-33.7960783,151.1830913,,,,,,,,
Absolutely All Hours Dental Emergency Service,Hospitals,59 Grosvenor St,Bondi Junction,NSW,2022,(02) 9369 2101,,-33.892027,151.249824,,,,,,,,
A Dental Clinic In The Fairfield Chase 24hr Medical & Dental Centre,Hospitals,,Fairfield,NSW,2165,(02) 9723 6035,,-33.8709273,150.9555848,,,,,,,,
A After Hours Dental Emergency on 9389 3333,Hospitals,110 Spring St Cnr Bronte Rd,Bondi Junction,NSW,2022,(02) 9389 3333,,-33.89264,151.24948,,,,,,,,
A After Hours 6 Day Dental Emergency,Hospitals,"Ground Floor, 7a - 304 The Kingsway",Caringbah,NSW,2229,(02) 9524 8877,,-34.036246,151.115684,,,,,,,,
A AA Dental Emergencies,Hospitals,268-270 Foote St,Templestowe,VIC,3106,(03) 9846 7175,,-37.761,145.13951,,,,,,,,
A 24 Hr 7 Day Emergency Service,Hospitals,14/ 695 The Horsley Dr,Smithfield,NSW,2164,(02) 9609 7959,,-33.85252,150.93918,,,,,,,,
Wymedical Pty Ltd,Hospitals,466 Fullarton Rd,Myrtle Bank,SA,5064,(08) 8338 6011,,-34.961043,138.626964,,,Active,11 007 974 281,Entity Name,25%,,
Vita-Com,Hospitals,,Norwood,SA,5067,1300 566 860,,-34.9272899,138.6279018,,,Active,72 138 535 636,Trading Name,25%,,
Trackman,Hospitals,17 Bracadale Ave,Duncraig,WA,6023,(08) 9447 1245,,-31.830584,115.781223,,,Active,39 317 862 344,Entity Name,25%,,
Surtecs Surgical Equipment Repair,Hospitals,29B Barnett Ave,Glynde,SA,5070,0414 668 475,,-34.89359,138.65469,,,Active,72 297 458 899,Business Name,25%,,
Smartline Machinery,Hospitals,PO Box 532,Buderim,QLD,4556,(07) 5478 9977,,-26.6847592,153.0537382,,1992,Active,73 064 471 471,Trading Name,25%,,
Sexton Trading Company,Hospitals,72 Crockford St,Northgate,QLD,4013,(07) 3265 9999,(07) 3260 6079,-27.387588,153.079095,Nov-20,1932,Active,68 009 829 485,Entity Name,25%,68 009 829 485,
SESS,Hospitals,62 Secam St,Mansfield,QLD,4122,(07) 3849 1077,,-27.529083,153.098504,,,Active,78 090 985 434,Entity Name,25%,,
Richards Medical,Hospitals,Unit 7A 100 New St,Ringwood,VIC,3134,(03) 9876 9944,,-37.82064,145.21836,,,Active,23 167 684 988,Entity Name,25%,,
Rauland Australia Pty Ltd,Hospitals,Suite 3/404- 412 Military St,Cremorne,NSW,2090,(02) 9908 1777,,-33.82777,151.23082,,,Active,63 056 360 653,Entity Name,25%,,
Pelican Manufacturing,Hospitals,5 Ruse St,Osborne Park,WA,6017,(08) 9444 4577,,-31.908167,115.815992,,,Active,39 008 771 873,Entity Name,25%,,
Nursing Innovations Pty Ltd,Hospitals,82 Basildon Rd,Lesmurdie,WA,6076,(08) 9271 4844,,-32.00581,116.03471,,,Active,92 347 834 602,Other Name,25%,,
Mobility Matters,Hospitals,21-23 Townsville St,Fyshwick,ACT,2609,(02) 6280 7244,,-35.328937,149.183846,,1978,Active,48 097 880 414,Entity Name,25%,48 097 880 414,
Med-Con Pty Ltd,Hospitals,Store 4 415 New Dookie Rd,Lemnos,VIC,3631,1800 001 435,,-36.363509,145.458847,,,Active,60 853 287 634,Trading Name,25%,,
Joyce Healthcare,Hospitals,68 Forsyth St,Oconnor,WA,6163,(08) 9337 4111,,-32.055686,115.787092,,,Active,17 073 119 730,Entity Name,25%,,
Hospitality Catering Hardware,Hospitals,55 Jacobsen Crst,Holden Hill,SA,5088,(08) 8369 2699,,-34.848,138.67371,,,Active,83 070 682 790,Entity Name,25%,,
Friendlies Independent Living,Hospitals,Bay Plaza 35 Torquay Rd,Hervey Bay,QLD,4655,(07) 4124 7533,,-25.283459,152.843675,1-Oct,,Active,55 087 649 330,Business Name,25%,,
Air Liquide Healthcare Pty Ltd,Hospitals,30 Lincoln St,Hobart,TAS,7000,(03) 6169 1255,,-42.88848,147.32221,,,Active,41 002 653 045,Entity Name,25%,41 002 653 045,002 653 045
Air Liquide Healthcare Pty Ltd,Hospitals,Unit 6 136 Russell St,Toowoomba,QLD,4350,(07) 4639 4844,,-27.558099,151.944125,,,Active,41 002 653 045,Entity Name,25%,41 002 653 045,002 653 045
Walsh Industries,Hospitals,33 Wingfield Rd,Wingfield,SA,5013,(08) 8262 6977,,-34.847347,138.550724,,,Active,34 088 113 722,Other Name,50%,,
Regional Health Care Group,Hospitals,33 Devlan St,Mansfield,QLD,4122,1300 659 281,,-27.52906,153.09796,,,Active,45 001 394 323,Trading Name,50%,,
Qld Rehab Equipment,Hospitals,10 Devlan St,Mansfield,QLD,4122,1300 743 710,,-27.531622,153.096452,,,Active,47 159 431 099,Business Name,50%,,
Hospital Telecommunications Pty Ltd,Hospitals,75 Edward St,Perth,WA,6000,(08) 9328 6470,,-31.947852,115.869761,,,Active,21 061 558 245,Entity Name,50%,,
Hospital Supplies of Australia,Hospitals,Cormack Rd,Wingfield,SA,5013,1300 720 274,,-34.84125,138.549331,,,Active,38 001 655 554,Business Name,50%,,
Hospital Supplies of Australia,Hospitals,11 Grand Ave,Camellia,NSW,2142,,(02) 8844 2402,-33.81852,151.03033,,,Active,38 001 655 554,Business Name,50%,,
Hand Rail Industries,Hospitals,90B Northgate Dr,Thomastown,VIC,3074,(03) 9466 3211,,-37.687737,145.033563,,,Active,37 010 365 474,Business Name,50%,,
E-Tex,Hospitals,74 Wedge St,Epping,VIC,3076,(03) 5976 3772,,-37.649978,145.022891,,1973,Active,94 313 161 400,Trading Name,50%,94 313 161 400,
Dunlop Foams,Hospitals,101- 103 Churchill Road North,Dry Creek,SA,5094,(08) 9414 0700,,-34.835842,138.587661,,,Active,23 098 742 584,Business Name,50%,,
BSG Housewares,Hospitals,Unit 4 30 Canvale Rd,Canning Vale,WA,6155,0452 216 968,,-32.06657,115.923834,,,Active,13 155 264 690,Business Name,50%,,
Abbott Australasia Pty Ltd,Hospitals,666 Doncaster Rd,Doncaster,VIC,3108,(03) 9842 7100,,-37.787741,145.129351,,,Active,95 000 180 389,Entity Name,50%,,
Home Healthcare Shop Pty Ltd,Hospitals,Corner Of Hoddle Street and Victoria Street 1 Hoddle St,Richmond,VIC,3121,,,-37.810107,144.991683,,,Active,48 132 266 927,Entity Name,75%,,
Electronic Services Canberra Pty Ltd,Hospitals,,Canberra City,ACT,2601,(02) 6161 4622,,-35.28078181,149.131396,,,Active,57 114 348 515,Entity Name,75%,,
Trewavis Surgical Instruments Pty Ltd,Hospitals,21 Michellan Ct,Bayswater,VIC,3153,(03) 9738 1788,,-37.842563,145.241421,,,Active,50 155 143 329,Entity Name,100%,,
Tech-Assist Products,Hospitals,Unit 2/ 5 Keele Pl,Kidman Park,SA,5025,(08) 8235 2200,,-34.91082,138.53251,,,Active,89 007 959 284,Business Name,100%,,
StaminaLift International Limited,Hospitals,Unit 7/ 11-13 Streiff Rd,Wingfield,SA,5013,(08) 8262 7137,,-34.849098,138.565644,,,Active,26 143 984 758,Entity Name,100%,,
Smith Sterilising,Hospitals,5 Roper St,West Lakes Shore,SA,5020,(08) 8449 3471,,-34.859907,138.485224,,,Active,88 057 214 052,Business Name,100%,,
Polymedic Pty Ltd,Hospitals,,Ashmore,QLD,4214,(07) 5539 3633,,-27.9864232,153.3807186,,,Active,36 050 414 241,Entity Name,100%,,
Mitcham Trading Pty Ltd,Hospitals,Unit 10 25 - 39 Cook Rd,Mitcham,VIC,3132,1800 000 996,,-37.813777,145.202738,,,Active,34 134 692 836,Entity Name,100%,,
Jamar & Hill Surgical Co Pty Ltd,Hospitals,23 Ebley St,Bondi Junction,NSW,2022,(02) 9389 5153,,-33.893346,151.24537,,,Active,76 002 223 001,Entity Name,100%,,
Indigo Care,Hospitals,Unit 2/ 71 Rushdale St,Knoxfield,VIC,3180,(03) 9761 6777,,-37.901152,145.253512,1-Oct,2013,Active,36 007 302 801,Business Name,100%,36 007 302 801,007 302 801
Hospequip Pty Ltd,Hospitals,21 Tulloch Way,Canning Vale,WA,6155,(08) 9456 1661,,-32.06501,115.931879,,,Active,30 606 480 942,Entity Name,100%,,
CHS Healthcare Pty Ltd,Hospitals,80 Wedgewood Rd,Hallam,VIC,3803,(03) 9709 3000,,-38.014014,145.257041,,,Active,49 604 563 304,Entity Name,100%,,
Sterilizing Equipment Sales & Service,Hospitals,3/ 105 Newell St,Bungalow,QLD,4870,(07) 4033 0722,,-16.94325,145.75513,,,,,,,,
Sterilizing Equipment Sales & Service,Hospitals,8 Catalyst Ct,Bohle,QLD,4818,(07) 4723 9605,,-19.260186,146.742117,,,,,,,,
Statewide Communications Pty Ltd,Hospitals,339 Williams St,Melbourne,VIC,3000,(03) 9329 8885,,-37.814579,144.957822,,,,,,,,
Parker Healthcare Pty Ltd,Hospitals,,,,,(03) 9872 0222,,,,,,,,,,,
NQ Gasfitting & Mechanical Services,Hospitals,,Townsville,QLD,4810,0409 496 909,,-19.2576223,146.8178787,,,,,,,,
Moffat Pty Ltd,Hospitals,,,,,,,,,,,,,,,,
Mercy Women's Clinic,Hospitals,Level 6 103 Studley Rd,Eaglemont,VIC,3084,1300 657 501,,-37.760541,145.055709,,,,,,,,
Medco Medical Sales And Service,Hospitals,51 Bullock Dr,Leslie Vale,TAS,7054,(03) 6239 6552,,-42.96594,147.22567,,,,,,,,
McLean Health Care,Hospitals,26 Earl St,Launceston,TAS,7250,(03) 6331 7400,,-41.43694,147.14154,,,,,,,,
MBM,Hospitals,Factory 2 4 Steele Ct,Mentone,VIC,3194,(03) 9584 0221,,-37.97708,145.08425,,,,,,,,
Malmet Sales & Service,Hospitals,167 Target Hill Rd,Salisbury Heights,SA,5109,(08) 8289 6479,,-34.767458,138.69633,,,,,,,,
"Latham Handrails, Bumprails & Wall Protection",Hospitals,,Hobart,TAS,7000,1300 528 426,,-42.881903,147.323815,,,,,,,,
"Latham Handrails, Bumprails & Wall Protection",Hospitals,,Melbourne,VIC,3000,1300 528 426,,-37.813985,144.963114,,,,,,,,
L.A. Chemicals Pty Ltd,Hospitals,15 Fuller St,Parkside,SA,5063,0416 049 777,,-34.94716,138.61932,,,,,,,,
KNK Equipment Service,Hospitals,7 Delamare Dr,Paralowie,SA,5108,(08) 8250 3078,,-34.755277,138.610413,1-Oct,,,,,,,
JMR Australia Pty Ltd,Hospitals,,Adelaide,SA,5000,(08) 8378 3999,,-34.92717091,138.5995409,,,,,,,,
JMR Australia Pty Ltd,Hospitals,,Melbourne,VIC,3000,(03) 9483 1438,,-37.813985,144.963114,,,,,,,,
Hospitality Gases Pty Ltd,Hospitals,629 Lower North East Rd,Campbelltown,SA,5074,(08) 8262 9888,,-34.877185,138.663851,,,,,,,,
Hospital Supplies of Australia.,Hospitals,8 Mill Lane,Glenorchy,TAS,7010,(03) 6273 7635,,-42.83349,147.27128,,,,,,,,
Highgate Healthcare,Hospitals,,,,,,,,,,,,,,,,
Gambro Pty Ltd,Hospitals,,,,,1800 803 489,,,,,,,,,,,
Equipment & Hospitality Supplies,Hospitals,,Rockhampton,QLD,4700,(07) 4926 1174,,-23.3769402,150.5109811,,,,,,,,
Easy Way Bath Pty Ltd,Hospitals,,Latrobe,TAS,7307,(03) 6426 7362,,-41.2353797,146.4103638,,,,,,,,
DENTSPLY(Aust) Pty Ltd,Hospitals,11- 21 Gilby Rd,Mt Waverley,VIC,3149,(03) 9538 8200,,-37.896581,145.135812,,,,,,,15 004 290 322,
DENTSPLY (Aust) Pty Ltd,Hospitals,,,,,1300 552 929,,,,,,,,,,,
Capital Clothing Pty Ltd,Hospitals,Fcty 2/ 12 Henderson St,Sunshine North,VIC,3020,(03) 9311 4859,,-37.764385,144.842881,,,,,,,,
Australcare,Hospitals,Comet Place Shop 2 133 Lennox St,Maryborough,QLD,4650,(07) 4123 2733,,-25.53978,152.69957,,,,,,,,
Ashmore Health & Surgical,Hospitals,Ashmore Plaza Cotlew St,Ashmore,QLD,4214,(07) 5539 2877,,-27.9871,153.38326,,,,,,,,
Asbra Latham Wall Protection,Hospitals,,Adelaide,SA,5000,1300 528 426,,-34.92717091,138.5995409,,,,,,,,
Asbra Latham Wall Protection,Hospitals,Tennyson St,Adelaide,SA,5000,1300 528 426,,-34.948914,138.563051,,,,,,,,
Asbra Latham Wall Protection,Hospitals,,Brisbane,QLD,4000,1300 528 426,,-27.47002735,153.0229763,,,,,,,,
Asbra Latham Wall Protection,Hospitals,,Richmond,VIC,3121,1300 528 426,,-37.8186391,145.0014756,,,,,,,,
Asbra Latham Wall Protection,Hospitals,,Canberra,ACT,2600,1300 528 426,,-35.28078181,149.131396,,,,,,,,
Asbra Latham Wall Protection,Hospitals,,,,,1300 528 426,,,,,,,,,,,
Anaequip Medical Pty Ltd,Hospitals,Unit 6/ 28 Heath St,Lonsdale,SA,5160,(08) 8382 4855,,-35.11367,138.5039,,,,,,,,
Ames Medical Equipment Specialists Pty Ltd,Hospitals,,,,,0400 527 337,,,,,,,,,,,
Xacom Pty Ltd,Hospitals,Suite 1/ 20 Kirkham St,Beecroft,NSW,2119,1300 854 329,,-33.75595,151.06545,,,Active,95 008 053 110,Entity Name,50%,,
Ultracare Pty Ltd,Hospitals,,Avalon,NSW,2107,(02) 9997 7900,,-33.63716,151.33536,,,Active,80 001 369 802,Entity Name,50%,,
Steritech,Hospitals,21 Titan Dr,Mickleham,VIC,3064,0400 970 337,,-37.53661,144.935543,,,Active,30 451 935 502,Trading Name,50%,,
Regional Health Care Group,Hospitals,8 Michael St,Brunswick,VIC,3056,1300 659 281,,-37.772273,144.95982,,,Active,45 001 394 323,Trading Name,50%,,
Pegasus Healthcare,Hospitals,Unit 1 30 Heathcote Rd,Moorebank,NSW,2170,(02) 9601 6909,,-33.93083,150.93407,,,Active,25 947 570 165,Other Name,50%,,
Medicraft Hill-Rom,Hospitals,,Marrickville,NSW,2204,(02) 9569 8394,,-33.91063,151.15646,,,Active,17 101 410 940,Trading Name,50%,,
Malone Hospital Services Pty Ltd,Hospitals,Unit 7/ 9 Redcliff Gardens Dr,Clontarf,QLD,4019,(07) 3283 2566,,-27.235553,153.077781,,,Active,80 061 127 179,Entity Name,50%,,
Legend Care,Hospitals,30 Berry St,Clyde,NSW,2142,(02) 9637 3144,,-33.834508,151.017861,,,Active,82 227 361 502,Trading Name,50%,,
Kalcare,Hospitals,4/ 10 Uppill Pl,Wangara,WA,6065,0420 224 967,,-31.785059,115.812407,,,Active,44 701 634 518,Trading Name,50%,,
EuroFood Shop,Hospitals,,Clayton South,VIC,3169,0410 225 649,,-37.939807,145.1332686,,,Active,85 149 913 333,Business Name,50%,,
Darkroom Technologies,Hospitals,Fcty 8/ 9 Greaves St,Dandenong,VIC,3175,(03) 9793 3448,,-37.99243,145.20797,,,Active,45 087 688 613,Business Name,50%,,
Blooms The Chemist,Hospitals,401 Princes Hwy,Woonona,NSW,2517,(02) 4285 4500,,-34.341956,150.906333,,,Active,64 003 584 718,Business Name,50%,,
ArjoHuntleigh,Hospitals,Level 2 4 Talavera Rd,Macquarie Park,NSW,2113,1800 072 040,,-33.781595,151.131033,,,Active,75 007 200 900,Business Name,50%,,
Aidacare Pty Ltd,Hospitals,355 Urana Rd,Lavington,NSW,2641,(02) 6040 3444,,-36.04919,146.930859,,,Active,40 134 398 833,Entity Name,50%,,
Scientific Technical Services,Hospitals,Rear 307 Selby St,Osborne Park,WA,6017,(08) 9244 4628,,-31.90731,115.803151,,,Active,22 069 774 992,Business Name,75%,,
Lightning Industries,Hospitals,9 Aurora Ave,Queanbeyan,NSW,2620,1800 659 985,,-35.338739,149.244293,,,Active,54 613 178 027,Trading Name,75%,,
L.R. Instruments Pty Ltd,Hospitals,Unit 7 100 New St,Ringwood,VIC,3134,1800 337 048,,-37.82064,145.21836,,,Active,69 167 674 142,Entity Name,75%,,
Calvary Health Care Bethlehem Limited,Hospitals,476 Kooyong Rd,Caulfield,VIC,3162,(03) 9596 8998,,-37.89718,145.01343,,,Active,81 105 303 704,Entity Name,75%,,
Advance Call,Hospitals,Unit D 5 13-15 Forrester St,Kingsgrove,NSW,2208,(02) 9554 3222,,-33.938869,151.097302,,,Active,61 165 621 992,Business Name,75%,,
Ackermann,Hospitals,15 Harker St,Burwood,VIC,3125,(03) 9889 8833,,-37.85337,145.10444,,,Active,71 074 198 584,Business Name,75%,,
Wintur Healthcare,Hospitals,18 Walker St,South Windsor,NSW,2756,1300 307 900,,-33.623067,150.810418,,,Active,15 119 824 332,Business Name,100%,,
Thomas Textiles,Hospitals,52 Colebard St,Acacia Ridge,QLD,4110,(07) 3274 2066,,-27.5819,153.00564,,,Active,50 009 673 447,Business Name,100%,,
Smart-Caller Pty Ltd,Hospitals,5/ 270 Lower Dandenong Rd,Mordialloc,VIC,3195,(03) 9588 0833,,-37.98605,145.10006,,,Active,14 217 255 933,Trading Name,100%,,
Service Assist,Hospitals,21/ 128 Canterbury Rd,Kilsyth,VIC,3137,(03) 9761 4722,(03) 9872 5288,-37.822383,145.308606,,,Active,59 159 959 743,Business Name,100%,,
National Surgical Corporation,Hospitals,38 Alexander Ave,Taren Point,NSW,2229,(02) 9524 7046,,-34.020323,151.124671,,,Active,36 141 239 567,Entity Name,100%,,
Malmet (Australia) Pty Ltd,Hospitals,,Leeton,NSW,2705,(02) 6953 7677,,-34.5514365,146.4067212,,,Active,95 001 717 791,Entity Name,100%,,
KTR Group,Hospitals,,Pakenham,VIC,3810,1300 669 507,,-38.0784936,145.4826278,,,Active,56 006 552 085,Trading Name,100%,,
KCI Medical Australia Pty Ltd,Hospitals,Level 7 15 Orion Rd,Lane Cove West,NSW,2066,1800 815 529,,-33.80753,151.1497,,,Active,47 056 073 468,Entity Name,100%,,
Hospital At Home,Hospitals,Unit 1/ 30 Heathcote Rd,Moorebank,NSW,2170,(02) 9601 7757,,-33.93146,150.93324,,,Active,43 003 109 073,Other Name,100%,,
H E Technical Services Pty Ltd,Hospitals,Factory 6 / 8 Concord Crst,Carrum Downs,VIC,3201,(03) 9775 0557,,-38.10022,145.16972,,,Active,55 006 814 526,Entity Name,100%,,
Emery Industries Pty Ltd,Hospitals,31 Demand Ave,Arundel,QLD,4214,(07) 5594 8400,,-27.940295,153.378239,,,Active,18 125 974 745,Entity Name,100%,,
Delta Medical,Hospitals,90 Chetwynd St,Loganholme,QLD,4129,(07) 3209 9733,(07) 3209 9744,-27.681912,153.194114,Nov-20,1983,Active,20 059 342 086,Business Name,100%,20 059 342 086,059 342 086
Confident Care Products,Hospitals,65 Williamson Rd,Ingleburn,NSW,2565,1800 020 025,,-33.992662,150.855179,,,Active,11 071 043 662,Business Name,100%,,
B. Braun Australia Pty Ltd,Hospitals,Level 5 7-9 Irvine Pl,Bella Vista,NSW,2153,(02) 9629 0200,,-33.739262,150.947134,,,Active,56 002 945 155,Entity Name,100%,,
Warrick Mark Thomas Surgical,Hospitals,10 May Ave,Subiaco,WA,6008,(08) 9381 2333,,-31.94656,115.83174,,,,,,,,
Surgical Supplies,Hospitals,Unit 17 Metro Centre 38- 46 South St,Rydalmere,NSW,2116,(02) 9638 2100,,-33.817228,151.03915,,,,,,,,
Steritech Pty Ltd,Hospitals,160 South Gippsland Hwy,Dandenong South,VIC,3175,(03) 8726 5566,(03) 9701 3158,-38.014155,145.230407,,,,,,,,
Southern Cross Hospital Supplies,Hospitals,175 Briens Rd,Northmead,NSW,2152,(02) 9890 5088,,-33.797512,150.982963,,,,,,,,
Regional Healthcare,Hospitals,8 Michael St,Brunswick,VIC,3056,(03) 9389 0400,,-37.772273,144.95982,,,,,,,,
Rauland Australia Pty Ltd,Hospitals,52 Lothian St,North Melbourne,VIC,3051,(03) 9328 5811,,-37.801887,144.944935,,,,,,,,
Professional Dental Equipment Services Pty Ltd,Hospitals,Unit 10 1029 Manly Rd,Tingalpa,QLD,4173,(07) 3847 2825,,-27.474845,153.133553,,1990,,,,,,
Perfusion Services Pty Ltd,Hospitals,Unit 2/ 91 Tulip St,Cheltenham,VIC,3192,(03) 9585 6011,,-37.96324,145.03334,,,,,,,,
Performance Fabrics,Hospitals,111 Beach Rd,Wangi Wangi,NSW,2267,(02) 4975 5306,,-33.07149,151.57204,,,,,,,,
Moffat Pty Ltd,Hospitals,Unit 3 142 James Ruse Dr,Parramatta,NSW,2150,1800 023 953,,-33.81733,151.02142,,,,,,,,
Midmed Pty Ltd,Hospitals,4 62 Borthwick Ave,Murarrie,QLD,4172,1300 643 633,,-27.455921,153.104719,,,,,,,,
Merlon,Hospitals,339 William St,West Melbourne,VIC,3003,(03) 9329 8885,,-37.80771,144.9542,,,,,,,,
Merlon,Hospitals,,Seven Hills,NSW,1730,(02) 9676 1632,,-33.7762275,150.9323148,,,,,,,,
Medical Devices Pty Ltd,Hospitals,76 Tennyson Rd,Mortlake,NSW,2137,(02) 9743 3888,,-33.84177,151.107312,,,,,,,,
McFarlane Medical & Scientific Equipment,Hospitals,443 Canterbury Rd,Surrey Hills,VIC,3127,(03) 9836 7777,,-37.825048,145.091893,,,,,,,,
Little Green Panda,Hospitals,,Melbourne,VIC,3000,(03) 9069 9426,,-37.813985,144.963114,1-Oct,2019,,,,,70 632 157 290,
Life Mobility,Hospitals,24 Cooperate Blv,Bayswater,VIC,3153,(03) 9729 5552,,-37.839247,145.283981,,,,,,,,
KTR Group incorporating GT Jones Communications,Hospitals,3/ 901 Princess Hwy,Pakenham,VIC,3810,1300 669 507,,-38.06236,145.46066,,,,,,,,
HCAH,Hospitals,1 Carinish Rd,Oakleigh South,VIC,3167,(03) 9540 0199,,-37.914489,145.107772,,,,,,,,
Gren Innovation Pty Ltd,Hospitals,,Gordon,NSW,2072,0411 176 626,,-33.7555157,151.1521331,,,,,,,,
Douglas Bean (Aust.) Pty Ltd,Hospitals,84 Lewis Rd,Wantirna South,VIC,3152,1800 338 212,(03) 9887 0149,-37.865687,145.250748,Nov-20,,,,,,22 005 443 863,
Clipper Plastics Pty Ltd,Hospitals,5 Bessemer Rd,Bayswater North,VIC,3153,(03) 9729 8244,,-37.818322,145.29901,,,,,,,,
Cattani Australia,Hospitals,280 Dundas St,Thornbury,VIC,3071,(03) 9484 1120,,-37.75569,145.028771,,,,,,,,
CareWell Health,Hospitals,78-90 Old Canterbury Rd,Lewisham,NSW,2049,(02) 9564 0684,,-33.893758,151.144704,,,,,,,,
Caretech Systems Pty Ltd,Hospitals,2/ 19 Redcliffe Gardens Dr,Clontarf,QLD,4019,(07) 3284 2700,,-27.235946,153.078655,,,,,,,,
Air Liquide Healthcare,Hospitals,40 Bunnett St,Sunshine North,VIC,3020,,,-37.76313,144.842388,,,,,,,41 002 653 045,002 653 045
Air Liquide Healthcare,Hospitals,Locked Bag 1008,Rosebery,NSW,1445,,,-33.9225153,151.2041012,,,,,,,41 002 653 045,002 653 045
Advanced Electronic Services,Hospitals,20 Mulsanne Way,Warranwood,VIC,3134,(03) 9879 0562,,-37.77434,145.24302,,,,,,,,
Adteck Pty Ltd,Hospitals,Unit 3c/ 13 Forrester St,Kingsgrove,NSW,2208,(02) 9554 3222,,-33.93887,151.0973,,,,,,,,
Ackermann,Hospitals,Unit 3/ 29 Mitchell Rd,Brookvale,NSW,2100,(02) 9939 0933,,-33.76479,151.27457,,,,,,,,
Water Chair Company,Hospitals,42 Alexander Ave,Taren Point,NSW,2229,(02) 9531 1699,,-34.020525,151.124628,,,,,,,,
Vost K.G. Pty Ltd,Hospitals,3 Mundowi Rd,Mt Kuring Gai,NSW,2080,1800 658 333,,-33.642647,151.129664,,,,,,,,
USCOM Ltd,Hospitals,Lvl 7/ 10 Loftus St,Sydney,NSW,2000,(02) 9247 4144,,-33.86257,151.21067,,,,,,,,
Turner Bros Furnishings P/L,Hospitals,10 Vincent St,Marrickville,NSW,2204,(02) 8594 0700,,-33.911535,151.162978,,,,,,,,
Steritech Pty Ltd,Hospitals,5 Widemere Rd,Wetherill Park,NSW,2164,(02) 9609 5566,,-33.838379,150.912227,,,,,,,,
Stainless Steel Hospital Equipment,Hospitals,6 O'Malley St,Osborne Park,WA,6017,(08) 9446 6322,,-31.904338,115.809167,,,,,,,,
Silverglo Stainless Steel Pty Ltd,Hospitals,27 - 31 Arthurton Rd,Northcote,VIC,3070,(03) 9486 2688,(03) 9482 2250,-37.769559,144.996721,,1985,,,,,72 079 084 450,
Selkirk Hospital Services,Hospitals,62 Milne St,Templestowe,VIC,3106,(03) 9846 8272,,-37.752153,145.128984,,,,,,,,
Sedco Direct NSW,Hospitals,Unit 15/ 35 Higginbotham Rd,Gladesville,NSW,2111,(02) 9807 6991,,-33.81748,151.12396,,,,,,,,
Reynard Health Supplies (Aust),Hospitals,8 Ridge St,North Sydney,NSW,2060,1300 667 199,,-33.832296,151.205882,,,,,,,,
Rem Systems Pty Ltd,Hospitals,Unit 3 2 Eden Park Dr,North Ryde,NSW,2113,(02) 9878 0992,,-33.785422,151.130921,,,,,,,,
Mermed Aust Pty Ltd,Hospitals,Unit 3 30 Holbeche Rd,Arndell Park,NSW,2148,(02) 9672 7073,,-33.78909,150.88263,,,,,,,,
Medisurg Pty Ltd,Hospitals,3/ 74 Ishmael Rd,Earlville,QLD,4870,,,-16.943504,145.743329,,,,,,,,
Medical & Optical Instruments Australia Pty Ltd,Hospitals,81 Whiting St,Artarmon,NSW,2064,(02) 9439 6677,,-33.816377,151.180407,,,,,,,,
Malone Hospital Services,Hospitals,24 Tathra St,Gosford West,NSW,2250,(02) 4323 9731,,-33.41638,151.31685,,,,,,,,
Lockelec Innovation,Hospitals,14 Capital Ct,Braeside,VIC,3195,(03) 9587 5645,,-37.995396,145.109634,,,,,,,,
Lightning Industry,Hospitals,,Sydney,NSW,2000,1800 659 985,,-33.87276349,151.2053446,,,,,,,,
"Latham Handrails, Bumprails & Wall Protection",Hospitals,,Gladesville,NSW,2111,,,-33.8324481,151.1270573,,,,,,,,
Kendro Laboratory Products,Hospitals,Unit 4 2- 6 Orion Rd,Lane Cove,NSW,2066,(02) 9936 1540,,-33.80779,151.14734,,,,,,,,
John Beazley & Co Pty Ltd,Hospitals,3 Pilcher St,Enfield,NSW,2136,(02) 9642 6622,,-33.89696,151.07681,,,,,,,,
ITE Systems,Hospitals,172 Warrigal Rd,Oakleigh,VIC,3166,(03) 9570 4742,,-37.90845,145.085705,,,,,,,,
HSD Medstor Pty Ltd,Hospitals,Unit 8/ 98 Old Pittwater Rd,Brookvale,NSW,2100,(02) 9905 9766,,-33.76279,151.263051,,,,,,,,
Howard Wright Pty Ltd,Hospitals,1/ 2 Production Rd,Taren Point,NSW,2229,1800 120 727,,-34.02239,151.12575,,,,,,,,
Heritage Contract Systems,Hospitals,29 Prime Dr,Seven Hills,NSW,2147,(02) 9838 4111,,-33.772332,150.952664,,,,,,,,
Healthcare Furniture Aust,Hospitals,1F Marine Parade,Abbotsford,VIC,3067,(03) 9417 5055,,-37.803353,144.998602,,,,,,,,
Gambro Pty Ltd,Hospitals,Unit 33 121 Kerry Rd,Archerfield,QLD,4108,(07) 3216 7544,,-27.57063,153.02048,,,,,,,,
Gambro Pty Ltd,Hospitals,Suite 2 / Level 4 62 Norwest Blv,Baulkham Hills,NSW,2153,(02) 8852 3700,,-33.735919,150.957465,1001+,1964,,,,,,
Ergotec Health Systems,Hospitals,14 Timaru St,Turramurra,NSW,2074,0414 478 714,,-33.739326,151.130724,,,,,,,,
Endocorp Pty Ltd,Hospitals,,Oakleigh,VIC,3166,(03) 9569 4833,,-37.89846,145.088379,,,,,,,,
EHS Equipment & Hospitality Supplies,Hospitals,263 Ford St,Berserker,QLD,4701,(07) 4926 1174,,-23.356397,150.525569,,,,,,,,
E.M.T. Healthcare,Hospitals,Unit 4 11 Ponderosa Parade,Warriewood,NSW,2102,(02) 9979 4111,,-33.68089,151.2886,,,,,,,,
Donaldson Imaging,Hospitals,143 Pacific Hwy,Hornsby,NSW,2077,(02) 9476 6628,,-33.704231,151.097209,,,,,,,,
DENTSPLY#(Aust) #Pty #Ltd,Hospitals,Unit 1 8 Railway Tce,Dutton Park,QLD,4102,1300 552 929,,-27.49948,153.02882,,,,,,,,
Crow Furnishings Pty Ltd,Hospitals,Unit 12- 5 Salisbury Rd,Castle Hill,NSW,2154,(02) 9659 5614,,-33.729706,150.974862,,,,,,,47 001 130 623,
CodaCare,Hospitals,Unit 7/ 40 Abbotts Rd,Dandenong South,VIC,3175,1800 771 381,,-38.032678,145.218288,,,,,,,,
Chipmonk Pty Ltd,Hospitals,31 Lingara Ave,Palmwoods,QLD,4555,(07) 5457 3324,,-26.691963,152.950264,,,,,,,,
Campbell Wolf (Aust) Pty Ltd,Hospitals,,Nunawading,VIC,3131,(03) 9561 1007,,-37.8204155,145.1760749,,,,,,,,
Calltec Qld Pty Ltd,Hospitals,Unit 11/ 441 Nudgee Rd,Hendra,QLD,4011,(07) 3868 4033,,-27.416502,153.075581,,,,,,,,
C / S Group The,Hospitals,1 Endeavour Rd,Caringbah,NSW,2229,(02) 8543 4000,,-34.030394,151.131017,,,,,,,,
Boltech Communication Systems Pty Ltd,Hospitals,Unit 16/ 172 Redland Bay Rd,Capalaba,QLD,4157,(07) 3161 1178,(07) 3245 4387,-27.533767,153.202019,,,,,,,,
Bernard G Boulton,Hospitals,46 Hume St,Ringwood East,VIC,3135,(03) 9729 1538,,-37.82299,145.2595,,,,,,,,
Bed Alarms,Hospitals,Unit 1 33 Jade Dr,Molendinar,QLD,4214,0408 737 080,,-27.98104,153.361758,,,,,,,,
Australian Medical Chairs & Trolleys,Hospitals,Factory 1 84- 86 Industry Dr,Tweed Heads South,NSW,2486,(07) 5513 1007,,-28.20038,153.541635,,,,,,,,
Australia Medustar Pty Ltd,Hospitals,,Castle Hill,NSW,1765,(02) 8850 1681,,-33.7328755,151.0049495,,,,,,,,
Asbra Latham Wall Protection,Hospitals,14 Tennyson Rd,Gooseberry Hill,WA,6076,1300 528 426,,-31.962424,116.054562,,,,,,,,
Asbra Latham Wall Protection,Hospitals,,Perth,WA,6000,1300 528 426,,-31.95285358,115.8573142,,,,,,,,
Asbra Latham Wall Protection,Hospitals,,Gladesville,NSW,2111,1300 528 426,,-33.8324481,151.1270573,,,,,,,,
Arthur Bailey Surgico Pty Ltd,Hospitals,55 Lilyfield Rd,Rozelle,NSW,2039,(02) 9555 1588,,-33.868339,151.173199,,1920,,,,,,
Advanced Healthcare Furniture,Hospitals,28 Partridge Crst,Frankston,VIC,3199,(03) 9770 9011,,-38.17278,145.15508,,,,,,,,
Admed Hospital Supplies Pty Ltd,Hospitals,4 Noonan Pl,Ingleburn,NSW,1890,1300 133 120,,-33.98851,150.86234,,,,,,,,
Acetek Systems Pty Ltd,Hospitals,Unit 1/ 105 Derby St,Silverwater,NSW,2264,(02) 8748 9000,,-33.833325,151.038108,,,,,,,,
Yea & District Memorial,Hospitals,45 Station St,Yea,VIC,3717,(03) 5736 0400,,-37.213597,145.430948,,,Active,89 549 896 178,Entity Name,25%,,
W P Holman Clinic,Hospitals,"Level 1, Launceston General Hospital, Charles Street",Launceston,TAS,7250,(03) 6777 6140,,-41.440583,147.139574,,,Active,71 522 972 054,Entity Name,25%,,
Uniting Church in Australia,Hospitals,,Mt Lofty,QLD,4350,(07) 4637 8751,,-27.5474426,151.9656789,,,Active,25 813 299 067,Trading Name,25%,,
Townsville General,Hospitals,100 Angus Smith Dr,Douglas,QLD,4814,(07) 4796 1111,,-19.3207,146.76204,,,Active,77 969 261 135,Business Name,25%,,
Third Avenue Surgery,Hospitals,779 Beaufort St,Mt Lawley,WA,6050,(08) 9272 5533,,-31.92662,115.879159,,,Active,98 119 667 613,Trading Name,25%,,
Sunshine Coast University Public Hospital,Hospitals,6 Doherty St,Birtinya,QLD,4575,(07) 5202 0000,,-26.747047,153.113353,,,Active,50 475 567 255,Business Name,25%,,
St Vincent's Hospital Melbourne,Hospitals,41 Victoria Parade,Fitzroy,VIC,3065,(03) 9288 2211,(03) 9231 3399,-37.807556,144.975142,1001+,1893,Active,22 052 110 755,Entity Name,25%,22 052 110 755,
St Helens District Hospital,Hospitals,10 Annie St,St Helens,TAS,7216,(03) 6387 5570,,-41.317677,148.241429,,,Active,15 359 196 040,DGR Name,25%,,
Rosemount Hospital,Hospitals,Cartwright St,Windsor,QLD,4030,(07) 3624 1228,,-27.437797,153.033199,,,Active,45 128 891 298,Entity Name,25%,,
Queen Elizabeth Centre,Hospitals,102 Ascot St South,Ballarat,VIC,3350,(03) 5320 3700,,-37.562622,143.843955,,,Active,23 237 300 347,Entity Name,25%,,
Port Augusta Hospital,Hospitals,Hospital Rd,Port Augusta,SA,5700,(08) 8648 5500,,-32.505032,137.775052,,,Active,74 073 811 337,Entity Name,25%,,
Peterborough Soldiers? Memorial Hospital,Hospitals,23 Hurlstone St,Peterborough,SA,5422,(08) 8651 0400,,-32.980922,138.830314,,,Active,57 341 145 081,Entity Name,25%,,
Peter James Centre,Hospitals,New St,Ringwood,VIC,3134,(03) 9881 1126,,-37.81595,145.220617,,,Active,34 699 519 742,Entity Name,25%,,
Palmers Medical Centre,Hospitals,228A Sayers Rd,Truganina,VIC,3029,(03) 9908 2555,,-37.8535,144.744284,,,Active,55 489 515 483,Entity Name,25%,,
Osborne Park Hospital,Hospitals,Osborne Pl,Stirling,WA,6021,(08) 9346 8000,,-31.886679,115.804302,,,Active,45 454 754 876,Entity Name,25%,,
Northern Yorke Private Hospital,Hospitals,Ernest Tce,Wallaroo,SA,5556,(08) 8823 0200,,-33.930126,137.637326,,,Active,59 320 402 923,Entity Name,25%,,
Nambour General Hospital,Hospitals,Hospital Rd,Nambour,QLD,4560,(07) 5470 6600,,-26.622954,152.95478,,,Active,64 510 827 930,Entity Name,25%,,
Mount Pleasant District Hospital,Hospitals,28 Hospital Rd,Mt Pleasant,SA,5235,(08) 8568 0000,,-34.773802,139.05453,,,Active,21 697 081 503,Entity Name,25%,,
Mount Pleasant District Hospital,Hospitals,2 Albert St,Gumeracha,SA,5233,(08) 8209 9200,,-34.825559,138.881122,,,Active,21 697 081 503,Entity Name,25%,,
Moora Hospital,Hospitals,Dandaragan St,Moora,WA,6510,(08) 9651 0222,,-30.638847,115.996337,,,Active,88 468 387 861,Entity Name,25%,,
McLaren Vale & Districts War Memorial Hospital,Hospitals,Aldersey St,McLaren Vale,SA,5171,(08) 8323 6600,,-35.224311,138.544119,,,Active,47 542 553 950,Entity Name,25%,,
Maroondah Hospital,Hospitals,Davey Dr,Ringwood East,VIC,3135,1300 342 255,,-37.807061,145.255736,,,Active,76 523 046 904,Entity Name,25%,,
Jericho Bush Nursing Centre,Hospitals,Pasteur St,Jericho,QLD,4728,(07) 4651 4235,,-23.603326,146.125242,,,Active,80 852 209 948,Trading Name,25%,,
Hawthorn House,Hospitals,,Mt Hawthorn,WA,6016,(08) 9201 9599,,-31.9210631,115.8378226,,,Active,22 095 287 988,Entity Name,25%,,
Harvey District Hospital,Hospitals,45 Hayward St,Harvey,WA,6220,(08) 9729 1004,,-33.077264,115.896843,,,Active,98 988 185 103,Entity Name,25%,,
Gumeracha District Soldiers' Memorial Hospital,Hospitals,2 Albert St,Gumeracha,SA,5233,(08) 8209 9200,,-34.825559,138.881122,,,Active,15 550 326 037,Entity Name,25%,,
Glenview Home,Hospitals,2 Albert St,Gumeracha,SA,5233,(08) 8209 9290,,-34.825559,138.881122,,,Active,50 820 620 629,Trading Name,25%,,
Daylesford District Hospital,Hospitals,Hospital St,Daylesford,VIC,3460,(03) 5321 6500,,-37.337604,144.144847,,,Active,35 325 775 199,Entity Name,25%,,
Croydon Hospital,Hospitals,Sircon St,Croydon,QLD,4871,(07) 4745 6133,,-18.2039217,142.2446333,,,Active,55 024 872 353,Entity Name,25%,,
Coast Joint Care,Hospitals,Maroochy Waters Shopping Centre Denna St,Maroochydore,QLD,4558,(07) 5443 1033,,-26.642472,153.068572,,,Active,99 112 232 514,Entity Name,25%,,
Charters Towers,Hospitals,Gill St,Charters Towers,QLD,4820,(07) 4787 1099,,-20.076297,146.258463,,,Active,18 410 990 342,Other Name,25%,,
Carer Respite Centre,Hospitals,260-294 Kooyong Rd,Caulfield,VIC,3162,(03) 9276 6400,,-37.882773,145.017645,,,Active,13 993 250 709,Other Name,25%,,
Canberra Microsurgery,Hospitals,16 Wilbow St,Phillip,ACT,2606,(02) 6217 5000,,-35.345892,149.089718,,,Active,88 159 809 122,Entity Name,25%,,
Canberra Hospital,Hospitals,Yamba Dr,Garran,ACT,2605,(02) 5124 0000,,-35.345912,149.100637,,1973,Active,82 049 056 234,Other Name,25%,,
Calvary Health Care,Hospitals,30 Cascade Rd,South Hobart,TAS,7004,(02) 6223 7444,,-42.895721,147.306326,,,Active,75 081 149 126,Entity Name,25%,,
Bunbury Hospital,Hospitals,"Bussell Highway (cnr Robertson Drive),",Bunbury,WA,6230,(08) 9722 1600,,-33.346902,115.668621,,,Active,21 930 207 958,Business Name,25%,,
Bendigo Hospital Pathology Services,Hospitals,Arnold St,Bendigo,VIC,3550,(03) 5454 8950,,-36.750701,144.284118,,,Active,26 875 445 912,Other Name,25%,,
Barrett Adolescent Centre,Hospitals,Orford Dr,Wacol,QLD,4076,(07) 3271 8760,,-27.596197,152.914767,,,Active,95 170 964 246,Entity Name,25%,,
Augusta,Hospitals,Blackwood Ave,Augusta,WA,6290,(08) 9758 3222,,-34.318508,115.161027,,,Active,82 216 677 353,Trading Name,25%,,
Albany Regional Hospital,Hospitals,Warden Ave,Albany,WA,6330,(08) 9892 2222,,-35.004792,117.904479,,,Active,98 096 171 009,Entity Name,25%,,
Aged Care Reviews Pty Ltd,Hospitals,737 Burwood Rd,Hawthorn,VIC,3122,1300 654 670,,-37.82427,145.049198,,,Active,44 166 080 306,Entity Name,25%,,
Advanced SurgiCare,Hospitals,Suite 3 Level 5 1 South St,Kogarah,NSW,2217,1300 551 533,,-33.966896,151.136308,,,Active,49 154 115 429,Entity Name,25%,,
Aboriginal Health,Hospitals,Morrison St,Camooweal,QLD,4828,(07) 4748 2000,,-19.919504,138.121466,,,Active,48 147 968 885,Business Name,25%,,
Wondai Hospital,Hospitals,Bramston St,Wondai,QLD,4606,(07) 4169 2600,,-26.32299,151.87917,,,Active,66 329 169 412,Other Name,50%,,
WA Country Health Service South West,Hospitals,6 Fairbairn Rd,Busselton,WA,6280,(08) 9752 6300,,-33.65021,115.34867,,,Active,28 680 145 816,Business Name,50%,,
Toowoomba Hospital,Hospitals,Pechey St,Toowoomba,QLD,4350,(07) 4616 6000,,-27.570005,151.946899,,,Active,66 329 169 412,Other Name,50%,,
Taroom Hospital,Hospitals,Miller St,Taroom,QLD,4420,(07) 4628 9900,,-25.639209,149.798037,,,Active,64 109 516 141,DGR Name,50%,,
Springsure Hospital,Hospitals,21 Woodbine St,Springsure,QLD,4722,(07) 4984 1200,,-24.12012,148.08473,,,Active,66 329 169 412,Other Name,50%,,
School Dental Service,Hospitals,197- 234 McDowdall St,Roma,QLD,4455,0429 471 690,,-26.56855,148.77556,,,Active,55 264 981 997,Business Name,50%,,
SA Health,Hospitals,87 Wellington Rd,Mt Barker,SA,5251,(08) 8393 1777,,-35.082244,138.870778,,,Active,22 876 630 988,Other Name,50%,,
Royal Hobart Hospital,Hospitals,48 Liverpool St,Hobart,TAS,7000,(03) 6166 8308,,-42.880057,147.329922,,,Active,15 359 196 040,DGR Name,50%,,
Rockingham General Hospital,Hospitals,Elanora Dr,Cooloongup,WA,6168,(08) 9599 4000,,-32.292494,115.766445,,,Active,13 993 250 709,Other Name,50%,,
Queensland Health,Hospitals,,Southport,QLD,4215,(07) 5519 8777,,-27.9673072,153.4145154,,,Active,66 329 169 412,Other Name,50%,,
Proserpine Hospital,Hospitals,26- 32 Taylor St,Proserpine,QLD,4800,(07) 4813 9400,,-20.39971,148.58413,,,Active,66 329 169 412,Other Name,50%,,
Oakey Hospital,Hospitals,Cnr Beale and Fitzpatrick Streets,Oakey,QLD,4401,(07) 4691 4888,,-27.424668,151.717111,,,Active,66 329 169 412,Other Name,50%,,
North West Regional Hospital,Hospitals,23 Brickport Rd,Burnie,TAS,7320,(03) 6493 6000,,-41.046856,145.88121,,,Active,15 359 196 040,DGR Name,50%,,
New Norfolk District Hospital,Hospitals,3 Richmond St,New Norfolk,TAS,7140,(03) 6166 1300,,-42.780295,147.060549,,,Active,15 359 196 040,DGR Name,50%,,
Nanango Hospital,Hospitals,135 Brisbane St,Nanango,QLD,4615,(07) 4171 6700,,-26.663072,152.010003,,,Active,66 329 169 412,Other Name,50%,,
Murray District Hospital,Hospitals,McKay St,Pinjarra,WA,6208,(08) 9531 7222,,-32.638881,115.872022,,,Active,92 264 056 442,Business Name,50%,,
Murgon Hospital,Hospitals,Coronation Dr,Murgon,QLD,4605,(07) 4168 1444,,-26.237984,151.947383,,,Active,66 329 169 412,Other Name,50%,,
Modbury Hospital,Hospitals,Smart Rd,Modbury,SA,5092,(08) 8161 2000,,-34.83331,138.691754,,,Active,46 371 200 573,Other Name,50%,,
Millmerran Health Service,Hospitals,50 Commens St,Millmerran,QLD,4357,(07) 4695 3111,,-27.879686,151.262783,,,Active,66 329 169 412,Other Name,50%,,
Mildura Base Hospital,Hospitals,Ontario Ave,Mildura,VIC,3500,(03) 5022 3333,(03) 5022 3228,-34.200059,142.12465,21-50,,Active,36 003 184 889,Business Name,50%,,
Mersey Community Hospital,Hospitals,Torquay Rd,Latrobe,TAS,7307,(03) 6478 5500,,-41.229152,146.421387,,,Active,15 359 196 040,DGR Name,50%,,
Menindee Health Service,Hospitals,21 Perry St,Menindee,NSW,2879,(08) 8091 4209,,-32.39011,142.414519,,,Active,71 030 541 064,Business Name,50%,,
Maryborough Hospital,Hospitals,185 Walker St,Maryborough,QLD,4650,(07) 4122 8222,,-25.522244,152.690272,,,Active,66 329 169 412,Other Name,50%,,
Kilcoy Hospital,Hospitals,19 Brown St,Kilcoy,QLD,4515,(07) 5497 1333,,-26.941025,152.562145,,,Active,66 329 169 412,Other Name,50%,,
Jandowae Hospital,Hospitals,13 Dalby St,Jandowae,QLD,4410,(07) 4668 4555,,-26.780288,151.107624,,,Active,66 329 169 412,Other Name,50%,,
Innisfail Hospital,Hospitals,87 Rankin St,Innisfail,QLD,4860,(07) 4016 1411,,-17.518993,146.030061,,,Active,66 329 169 412,Other Name,50%,,
Hospitals,Hospitals,High St,Eildon,VIC,3713,(03) 5774 2711,,-37.232054,145.908266,,,Active,40 456 275 299,Trading Name,50%,,
Hospitals,Hospitals,Hollonds St,Mt Beauty,VIC,3699,(03) 5754 3500,,-36.742901,147.169606,,,Active,40 456 275 299,Trading Name,50%,,
Hospitals,Hospitals,Dixon St,Wangaratta,VIC,3677,(03) 5722 5347,,-36.353078,146.313398,,,Active,40 456 275 299,Trading Name,50%,,
Hospitals,Hospitals,22 Church St,Nagambie,VIC,3608,(03) 5794 2666,,-36.780532,145.15046,,,Active,40 456 275 299,Trading Name,50%,,
Hospitals,Hospitals,Wilson St,Wedderburn,VIC,3518,(03) 5431 7080,,-36.4164,143.6155,,,Active,40 456 275 299,Trading Name,50%,,
Hospitals,Hospitals,7 Caroline Chisholm Dr,Kyneton,VIC,3444,(03) 5422 9900,,-37.253592,144.468228,,,Active,40 456 275 299,Trading Name,50%,,
Hospitals,Hospitals,College St,Port Fairy,VIC,3284,(03) 5568 0100,,-38.383428,142.22611,,,Active,40 456 275 299,Trading Name,50%,,
Hospitals,Hospitals,Lava St,Warrnambool,VIC,3280,(03) 5564 6000,,-38.38,142.48,,,Active,40 456 275 299,Trading Name,50%,,
Hospitals,Hospitals,Hoddle St,Robertson,NSW,2577,(02) 4885 1475,,-34.593416,150.518466,,,Active,40 456 275 299,Trading Name,50%,,
Hobart Private Hospital,Hospitals,Argyle St,Hobart,TAS,7000,(03) 6214 3000,,-42.881236,147.330006,,,Active,25 082 134 245,Business Name,50%,,
Goondiwindi Hospital,Hospitals,Bowen St,Goondiwindi,QLD,4390,(07) 4578 2400,,-28.548464,150.308377,,,Active,66 329 169 412,Other Name,50%,,
Gladstone Hospital,Hospitals,Park St,Gladstone,QLD,4680,(07) 4976 3200,,-23.85197,151.24531,,,Active,76 874 184 685,DGR Name,50%,,
Fremantle Hospital & Health Service,Hospitals,Cnr Alma and South Tce,Fremantle,WA,6160,(08) 9431 3333,,-32.058985,115.751118,,,Active,13 993 250 709,Other Name,50%,,
Esk Hospital,Hospitals,Highland St,Esk,QLD,4312,(07) 5424 4600,,-27.238536,152.410431,,,Active,66 329 169 412,Other Name,50%,,
East Wimmera Health Service,Hospitals,Wycherproof Campus Grandview St,Wycheproof,VIC,3527,(03) 5478 0700,,-36.079411,143.235834,,,Active,91 424 920 693,Entity Name,50%,,
Department of Health and Human Services,Hospitals,9-11 Hazelwood Rd,Morwell,VIC,3840,1800 650 813,,-38.237666,146.395,,,Active,11 255 872 006,Trading Name,50%,,
Department Of Health,Hospitals,6-10 Talgarno St,Broadmeadows,VIC,3047,(03) 9309 0200,,-37.676281,144.917103,,,Active,13 993 250 709,Other Name,50%,,
Department Of Health,Hospitals,GPO Box 9848,Canberra,ACT,2601,(02) 6289 1555,,-35.28078181,149.131396,,,Active,11 255 872 006,Entity Name,50%,,
Department Of Community Services,Hospitals,25 Chelmsford Ave,Croydon,NSW,2132,(02) 9744 8461,,-33.88584,151.11008,,,Active,84 085 734 992,Business Name,50%,,
Cunnamulla Hospital,Hospitals,56 Wicks St,Cunnamulla,QLD,4490,(07) 4655 8100,,-28.07188,145.69059,,,Active,66 329 169 412,Other Name,50%,,
Caulfield Hospital,Hospitals,260 Kooyong Rd,Caulfield,VIC,3162,(03) 9076 6000,,-37.882773,145.017645,,,Active,27 318 956 319,Other Name,50%,,
Boonah Hospital,Hospitals,Leonard St,Boonah,QLD,4310,(07) 5463 3300,,-27.999054,152.67813,,,Active,66 329 169 412,Other Name,50%,,
Blackall Hospital,Hospitals,Shamrock St,Blackall,QLD,4472,(07) 4650 7700,,-24.425013,145.466098,,,Active,66 329 169 412,Other Name,50%,,
Barcaldine Hospital,Hospitals,Oak St,Barcaldine,QLD,4725,(07) 4650 4000,,-23.552606,145.291956,,,Active,66 329 169 412,Other Name,50%,,
Baralaba Hospital,Hospitals,1 Stopford St,Baralaba,QLD,4702,(07) 4998 2800,,-24.184402,149.809364,,,Active,66 329 169 412,Other Name,50%,,
Ayr Hospital,Hospitals,2 Chippendale St,Ayr,QLD,4807,(07) 4783 0855,,-19.56379,147.40774,,,Active,66 329 169 412,Other Name,50%,,
Wyong Hospital,Hospitals,664 Pacific Hwy,Hamlyn Terrace,NSW,2259,(02) 4394 8000,,-33.260524,151.478883,,,Active,88 523 389 096,Business Name,75%,,
Wynnum Hospital,Hospitals,Whites Rd,Lota,QLD,4179,(07) 3893 8000,,-27.474434,153.177065,,,Active,86 834 068 616,DGR Name,75%,,
Western Hospital,Hospitals,Gordon St,Footscray,VIC,3011,(03) 8345 6666,,-37.80002,144.88827,,,Active,61 166 735 672,Other Name,75%,,
West Wimmera Health Service,Hospitals,2 Charles Street,Jeparit,VIC,3423,(03) 5396 5500,,-36.141183,141.984655,,,Active,50 275 032 704,Entity Name,75%,,
West Wimmera Health Service,Hospitals,7 Farmers St,Kaniva,VIC,3419,(03) 5392 7000,,-36.381437,141.246044,,,Active,50 275 032 704,Entity Name,75%,,
Tully Hospital,Hospitals,CNR Cook &amp; Bryant St,Tully,QLD,4854,(07) 4068 4144,,-17.928571,145.924823,,,Active,25 285 907 786,DGR Name,75%,,
The Tweed Hospital,Hospitals,Powell St,Tweed Heads,NSW,2485,(07) 5506 7000,,-28.176913,153.545445,,,Active,67 284 856 520,Business Name,75%,,
Tennant Creek Hospital,Hospitals,Schmidt St,Tennant Creek,NT,860,(08) 8962 4399,,-19.646442,134.188129,,,Active,59 410 835 751,Business Name,75%,,
St Marys Community Health Centre,Hospitals,St Mary's Health Centre Gardiners Creek Rd,St Marys,TAS,7215,(03) 6387 5555,,-41.570739,148.177614,,,Active,15 359 196 040,DGR Name,75%,,
Sir Charles Gairdner Hospital,Hospitals,12 Verdun St,Nedlands,WA,6009,(08) 6457 3333,,-31.967946,115.814977,,,Active,13 993 250 709,Other Name,75%,,
Royal Prince Alfred Hospital,Hospitals,100 Carillon Ave,Newtown,NSW,2042,(02) 9519 6591,,-33.891655,151.18334,,,Active,17 520 269 052,Business Name,75%,,
Royal Children's Hospital,Hospitals,Level 1 Surgical Building Herston Rd,Herston,QLD,4006,(07) 3636 3777,,-27.448995,153.022512,,,Active,66 329 169 412,Other Name,75%,,
Redland Hospital,Hospitals,Weippin St,Cleveland,QLD,4163,(07) 3488 3111,,-27.5414715,153.2480125,,,Active,86 834 068 616,DGR Name,75%,,
Palmerston Regional Hospital,Hospitals,PO Box 41326,Casuarina,NT,811,(08) 7979 9200,,-12.3756503,130.8822128,,,Active,67 234 261 446,Business Name,75%,,
Moura Hospital,Hospitals,14 Nott St,Moura,QLD,4718,(07) 4997 2900,,-24.575703,149.976576,,,Active,76 874 184 685,DGR Name,75%,,
Mareeba Hospital,Hospitals,21 Lloyd St,Mareeba,QLD,4880,(07) 4092 9333,,-16.986884,145.424523,,,Active,25 285 907 786,DGR Name,75%,,
Manilla Hospital,Hospitals,Court St,Manilla,NSW,2346,(02) 6785 4000,,-30.748292,150.725382,,,Active,63 598 010 203,Business Name,75%,,
Logan Hospital,Hospitals,Cnr Armstrong and Loganlea Rds,Meadowbrook,QLD,4131,(07) 3299 8899,,-27.669623,153.139246,,,Active,86 834 068 616,DGR Name,75%,,
Lake Cargelligo Multi Purpose Service,Hospitals,Uabba St,Lake Cargelligo,NSW,2672,(02) 6898 1200,,-33.291941,146.372045,,,Active,71 172 428 618,Business Name,75%,,
King Edward Memorial Hospital For Women,Hospitals,Bagot Rd,Subiaco,WA,6008,(08) 9340 2222,,-31.950429,115.824829,,,Active,61 282 636 952,DGR Name,75%,,
Katherine Hospital,Hospitals,Gorge Rd,Katherine,NT,850,(08) 8973 9211,,-14.442097,132.270399,,,Active,67 234 261 446,Business Name,75%,,
Hospitals,Hospitals,Federation Sq,Caroline Springs,VIC,3023,(03) 9361 9300,,-37.737294,144.739454,,,Active,40 456 275 299,Trading Name,75%,,
Hornsby Ku-ring-gai Hospital,Hospitals,Palmerston Rd,Hornsby,NSW,2077,(02) 9477 9123,,-33.701336,151.111602,,,Active,63 834 171 987,Business Name,75%,,
Herberton Hospital,Hospitals,Bertha St,Herberton,QLD,4872,(07) 4096 2222,,-17.3799,145.381575,,,Active,25 285 907 786,DGR Name,75%,,
Hampstead Rehabilitation Centre,Hospitals,207-235 Hampstead Rd,Lightsview,SA,5085,(08) 8222 1600,,-34.860933,138.620827,,,Active,96 269 526 412,Business Name,75%,,
Graylands Hospital,Hospitals,Brockway Rd,Mt Claremont,WA,6010,(08) 9347 6600,,-31.963987,115.791769,,,Active,61 282 636 952,Business Name,75%,,
Gove District Hospital,Hospitals,Matthew Flinders Way,Nhulunbuy,NT,880,(08) 8987 0211,,-12.186663,136.780682,,,Active,67 234 261 446,Business Name,75%,,
Gin Gin Hospital,Hospitals,5 King St,Gin Gin,QLD,4671,(07) 4157 2222,,-24.985378,151.952983,,,Active,67 558 031 153,DGR Name,75%,,
East Wimmera Health Service,Hospitals,26 Duncan St,Birchip,VIC,3483,(03) 5477 7100,,-35.980157,142.915605,,,Active,91 424 920 693,Entity Name,75%,,
Cloncurry Hospital,Hospitals,Musgrave St,Cloncurry,QLD,4824,(07) 4742 4500,,-20.703338,140.526957,,,Active,22 406 683 778,DGR Name,75%,,
Childers Hospital,Hospitals,44 Broadhurst St,Childers,QLD,4660,(07) 4192 1133,,-25.239506,152.273113,,,Active,67 558 031 153,DGR Name,75%,,
Bundoora Extended Care Centre,Hospitals,1231 Plenty Rd,Bundoora,VIC,3083,(03) 9495 3100,,-37.70114,145.05553,,,Active,42 986 169 981,Other Name,75%,,
Yarrawonga Health,Hospitals,33 Piper St,Yarrawonga,VIC,3730,(03) 5743 8111,,-36.011493,146.006827,,,Active,32 983 213 307,Entity Name,100%,,
Women's & Children's Hospital,Hospitals,72 King William Rd,North Adelaide,SA,5006,(08) 8161 7000,,-34.91188,138.60032,,,Active,60 983 274 825,Entity Name,100%,,
Western District Health Service,Hospitals,"Foster Street,",Hamilton,VIC,3300,(03) 5551 8222,,-37.737726,142.030123,,,Active,47 616 976 917,Entity Name,100%,,
University Hospital Geelong,Hospitals,Bellerine St. - Main Entrance,Geelong,VIC,3220,(03) 4215 0000,,-38.160036,144.360512,,,Active,45 877 249 165,Business Name,100%,,
Stawell Regional Health,Hospitals,27-29 Sloane St,Stawell,VIC,3380,(03) 5358 8500,,-37.059534,142.781634,,,Active,50 467 753 315,Entity Name,100%,,
South West Healthcare,Hospitals,Ryot St,Warrnambool,VIC,3280,(03) 5561 3892,,-38.378818,142.474973,,,Active,41 189 754 233,Entity Name,100%,,
Royal Darwin Hospital,Hospitals,Rocklands Dr,Tiwi,NT,810,(08) 8922 8888,,-12.35947,130.878919,,,Active,67 234 261 446,Business Name,100%,,
Royal Adelaide Hospital,Hospitals,North Tce,Adelaide,SA,5000,(08) 8222 4000,,-34.92117,138.596357,,,Active,96 269 526 412,Other Name,100%,,
Royal Adelaide hospital,Hospitals,"Cardiothoracic Surgical Unit, Royal Adelaide Hospital",Adelaide,SA,5000,(08) 8222 5296,,-34.921404,138.601147,,,Active,96 269 526 412,Other Name,100%,,
Rockhampton Hospital,Hospitals,Canning St,Rockhampton,QLD,4700,(07) 4920 6211,,-23.378954,150.49522,,,Active,76 874 184 685,DGR Name,100%,,
Queen Elizabeth II Family Centre,Hospitals,129 Carruthers St,Curtin,ACT,2605,(02) 6205 2333,,-35.323296,149.079181,,,Active,27 358 139 470,Trading Name,100%,,
Princess Alexandra HOSPITAL,Hospitals,199 Ipswich Rd,Woolloongabba,QLD,4102,(07) 3176 2111,,-27.497371,153.033526,,,Active,86 834 068 616,DGR Name,100%,,
Orbost Regional Health,Hospitals,104 Boundary Rd,Orbost,VIC,3888,(03) 5154 6666,,-37.702116,148.465442,,,Active,13 010 280 446,Entity Name,100%,,
Oncology North,Hospitals,"St Vincentand's Hospital, Suite 9/5 Frederick Street",Launceston,TAS,7250,(03) 6334 7007,,-41.440729,147.14272,,,Active,45 138 428 163,Business Name,100%,,
Numurkah District Health Service,Hospitals,2 Katamatite Rd,Numurkah,VIC,3636,(03) 5862 0555,,-36.099345,145.443559,,,Active,24 620 742 736,Trading Name,100%,,
Northeast Health Wangaratta,Hospitals,Green St,Wangaratta,VIC,3677,(03) 5722 5111,,-36.353677,146.314743,,1872,Active,13 157 273 279,Entity Name,100%,,
Maryborough District Health Service,Hospitals,75- 87 Clarendon St,Maryborough,VIC,3465,(03) 5461 0333,,-37.044297,143.739124,,,Active,81 511 515 955,Entity Name,100%,,
Lyell McEwin Hospital,Hospitals,Haydown Rd,Elizabeth Vale,SA,5112,(08) 8182 9000,,-34.745195,138.667234,,,Active,46 371 200 573,Other Name,100%,,
Longreach Hospital,Hospitals,Jabiru St,Longreach,QLD,4730,(07) 4658 4700,,-23.435543,144.262233,,,Active,22 692 119 544,DGR Name,100%,,
Launceston General Hospital,Hospitals,274-280 Charlkes St,Launceston,TAS,7250,(03) 6777 6777,,-41.4370868,147.1393767,,,Active,15 359 196 040,DGR Name,100%,,
Kyneton District Health Service,Hospitals,7 Caroline Chisholm Dr,Kyneton,VIC,3444,(03) 5422 9900,,-37.253592,144.468228,,,Active,60 500 832 938,Entity Name,100%,,
Kerang District Health,Hospitals,Burgoyne St,Kerang,VIC,3579,(03) 5450 9200,,-35.724606,143.915982,,,Active,43 863 112 728,Entity Name,100%,,
Ipswich Hospital,Hospitals,Chelmsford Ave,Ipswich,QLD,4305,(07) 3810 1111,,-27.619332,152.757163,,,Active,64 468 984 022,DGR Name,100%,,
Inglewood & Districts Health Service,Hospitals,3 Hospital St,Inglewood,VIC,3517,(03) 5431 7000,,-36.572071,143.87395,,,Active,59 289 296 574,Entity Name,100%,,
Gosford Hospital,Hospitals,Holden St,Gosford,NSW,2250,(02) 4320 2111,,-33.42165,151.340492,,,Active,88 523 389 096,Business Name,100%,,
Epworth Sports and Exercise Medicine Group,Hospitals,Epworth Medical Centre Suite 2.3 Ground Level 32 Erin St,Richmond,VIC,3121,(03) 9426 6222,,-37.817155,144.99306,,,Active,97 420 694 950,Business Name,100%,,
Echuca Regional Health,Hospitals,226 Service St,Echuca,VIC,3564,(03) 5485 5000,,-36.138291,144.74823,,,Active,30 490 690 530,Entity Name,100%,,
Eastern Health,Hospitals,5 Arnold Street,Box Hill,VIC,3128,(03) 9895 3281,,-37.814852,145.118415,,,Active,68 223 819 017,Entity Name,100%,,
Dr Paul Dance Skin Cancer Clinic,Hospitals,16 Scarba St,Coffs Harbour,NSW,2450,(02) 6601 9003,,-30.294898,153.111723,,,Active,14 114 526 975,Business Name,100%,,
Austin Hospital,Hospitals,145 Studley Rd,Heidelberg,VIC,3084,(03) 9496 5000,,-37.756741,145.060543,,,Active,96 237 388 063,Business Name,100%,,
Alice Springs Hospital,Hospitals,Gap Road,Alice Springs,NT,870,(08) 8951 7777,,-23.705067,133.880026,,,Active,59 410 835 751,Business Name,100%,,
Yorke Peninsula Health Maitland Hospital,Hospitals,65 Robert St,Maitland,SA,5573,(08) 8832 2626,,-34.370285,137.674192,,,,,,,63 536 628 288,
Wynnum Health Service Centre,Hospitals,128 Whites Rd,Lota,QLD,4179,(07) 3893 8111,,-27.463916,153.180762,,,,,,,,
Wyndham District Hospital,Hospitals,,Wyndham,WA,6740,(08) 9161 1104,,-15.4640914,128.1003217,,,,,,,,
Wongan Hills District Hospital,Hospitals,Ackland St,Wongan Hills,WA,6603,(08) 9691 1222,,-30.894963,116.723925,,,,,,,,
Whyalla Hospital and Health Service,Hospitals,20 Wood Tce,Whyalla,SA,5600,(08) 8648 8300,,-33.033275,137.578245,,,,,,,,
West Coast District Public Hospital,Hospitals,60-64 Orrs St,Queenstown,TAS,7467,(03) 6495 1550,,-42.08119,145.558336,,,,,,,,
West Australian Transcultural Mental Health Centre,Hospitals,50 Murray St,Perth,WA,6000,(08) 9224 1760,,-31.95415,115.86391,,,,,,,,
Wellington Clinic,Hospitals,42 Argyle St,Hobart,TAS,7000,(03) 6166 0000,,-42.880574,147.328448,,,,,,,,
Weipa Integrated Health Service,Hospitals,Lot 407 John Evans Dr,Weipa,QLD,4874,(07) 4082 3900,,-12.640846,141.867146,,,,,,,,
Warren Multipurpose Health Service,Hospitals,Dr Kater Dr,Warren,NSW,2824,(02) 6847 7200,,-31.693107,147.837488,,,,,,,,
Wandoan Outpatients Clinic,Hospitals,14 Henderson St,Wandoan,QLD,4419,(07) 4627 4444,,-26.121691,149.960995,,,,,,,,
Waikerie Hospital & Health Services Incorporated,Hospitals,Lawrie Tce,Waikerie,SA,5330,(08) 8541 0555,,-34.183512,139.980385,,,,,,,,
TQEH Day Surgery Unit,Hospitals,Woodville Rd,Woodville,SA,5011,(08) 8222 6626,,-34.88,138.53,,,,,,,,
Thomas Embling Hospital,Hospitals,Yarra Bend Rd,Fairfield,VIC,3078,(03) 9495 9100,,-37.79197515,145.0093633,,,,,,,,
The Williamstown Hospital,Hospitals,Railway Crst,Williamstown,VIC,3016,(03) 9393 0100,,-37.857292,144.897759,,,,,,,,
Texas Multipurpose Health Service,Hospitals,Mingoola Rd,Texas,QLD,4385,(07) 4653 3200,,-28.857641,151.173889,,,,,,,,
Terang & Mortlake Health Service,Hospitals,23 Boundary Rd,Mortlake,VIC,3272,(03) 5558 7000,,-38.0826,142.812469,,,,,,,,
Tennyson Centre Day Hopsital,Hospitals,506-520 South Rd,Kurralta Park,SA,5037,(08) 8292 2331,,-34.948614,138.570816,,,,,,,,
Tailem Bend District Hospital,Hospitals,Princes Hwy,Tailem Bend,SA,5260,(08) 8572 5800,,-35.308583,139.42562,,,,,,,,
Strathalbyn & District Health Service,Hospitals,14 Alfred Pl,Strathalbyn,SA,5255,(08) 8536 5333,,-35.257765,138.893815,,,,,,,,
Stewart Cowen,Hospitals,1 Market St,Eaglehawk,VIC,3556,(03) 5454 6333,,-36.719017,144.250529,,,,,,,,
St Paul's Maternity Hospital,Hospitals,,Clayfield,QLD,4011,(07) 3860 7111,,-27.4187031,153.0553331,,,,,,,,
St Margarets Rehabilitation Hospital,Hospitals,65 Military Rd,Semaphore South,SA,5019,(08) 8242 9111,,-34.84642,138.48047,,,,,,,,
St George's Health Services,Hospitals,283 Cotham Rd,Kew,VIC,3101,(03) 9272 0444,,-37.808436,145.053068,,,,,,,,
South West Healthcare Camperdown Campus,Hospitals,York St,Camperdown,VIC,3260,(03) 5593 1290,,-38.237676,143.137685,,,,,,,,
Sarina Hospital & Primary Health Care Centre,Hospitals,Hospital St,Sarina,QLD,4737,(07) 4943 8777,,-21.421593,149.210309,,,,,,,,
Royal Brisbane and Women's Hospital,Hospitals,Cnr Butterfield St and Bowen Bridge Rd,Herston,QLD,4006,(07) 3646 6810,,-27.447851,153.029148,,,,,,,,
Roxby Downs Health Service,Hospitals,16-28 Burgoyne St,Roxby Downs,SA,5725,(08) 8671 9020,,-30.563107,136.893997,,,,,,,,
Roma Public Hospital,Hospitals,Roma Hospital 197-235 Mcdowall St,Roma,QLD,4455,(07) 4624 2700,,-26.568554,148.775535,,,,,,,,
Riverland General Hospital,Hospitals,10 Maddern St,Berri,SA,5343,(08) 8580 2400,,-34.276264,140.601433,,,,,,,,
Ravensthorpe Health Service,Hospitals,Martin St,Ravensthorpe,WA,6346,(08) 9838 2211,,-33.584515,120.043859,,,,,,,,
Ravenshoe Primary Health Care Centre,Hospitals,17 Kuradilla St,Ravenshoe,QLD,4888,(07) 4097 6223,,-17.60693747,145.4819536,,,,,,,,
Quilpie Public Hospital,Hospitals,30 Gyrica St,Quilpie,QLD,4480,(07) 4656 0100,,-26.616604,144.27364,,,,,,,,
Queens Park Child Development Centre,Hospitals,202 Treasure Rd,Queens Park,WA,6107,(08) 9458 9304,,-31.998595,115.944428,,,,,,,,
Queen Elizabeth Hospital The,Hospitals,Woodville Rd,Woodville South,SA,5011,(08) 8222 6000,,-34.88346,138.533498,,,,,,,,
Quairading District Hospital,Hospitals,Harris St,Quairading,WA,6383,(08) 9645 1100,,-32.014228,117.402222,,,,,,,,
Public Health Units,Hospitals,Barber Ave East,Kingswood,NSW,2747,(02) 4734 2022,,-33.758148,150.712797,,,,,,,,
Proston Outpatients Clinic,Hospitals,Brigoode Rd,Proston,QLD,4613,(07) 4168 9288,,-26.160661,151.6006138,,,,,,,,
Port Lincoln Health Services,Hospitals,Oxford Tce,Port Lincoln,SA,5606,(08) 8683 2200,,-34.721768,135.85051,,,,,,,,
Port Broughton And District Hospital And Health Service,Hospitals,Bay St,Port Broughton,SA,5522,(08) 8635 2200,,-33.600397,137.932844,,,,,,,,
Pinnaroo Soldiers Memorial Hospital,Hospitals,Bundey Tce,Pinnaroo,SA,5304,(08) 8577 9222,,-35.257124,140.906261,,,,,,,,
Peter James Centre,Hospitals,,,,,(03) 9722 9519,,,,,,,,,,,
Pemberton Hospital (Multi Purpose Service),Hospitals,Hospital Ave,Pemberton,WA,6260,(08) 9776 4000,,-34.44494,116.03139,,,,,,,,
Patient Assistance Travel scheme,Hospitals,"Royal Darwin Hospital, First Floor Rocklands Dr",Tiwi,NT,810,(08) 8922 8135,,-12.359442,130.878772,,,,,,,,
Paraburdoo Hospital,Hospitals,Rocklea Rd,Paraburdoo,WA,6754,(08) 9159 8222,,-23.210687,117.663809,,,,,,,,
Orroroo and District Health Service,Hospitals,68 Price Maurice Rd,Orroroo,SA,5431,(08) 8658 1200,,-32.738668,138.605591,,,,,,,,
Oodnadatta Health Services,Hospitals,,Oodnadatta,SA,5734,(08) 8670 7803,,-27.5920929,135.4463831,,,,,,,,
NSW Health Pathology Griffith,Hospitals,68 Victoria Sq,Narrandera,NSW,2700,(02) 6959 2125,,-34.746616,146.553944,,,,,,,,
Northcote Day Centre,Hospitals,92 Dennis St,Northcote,VIC,3070,(03) 9486 7413,,-37.766437,145.00487,,,,,,,,
Northcliffe Nursing Post,Hospitals,Wheatley Coast Rd,Northcliffe,WA,6262,(08) 9776 7080,,-34.635195,116.123738,,,,,,,,
Northampton Kalbarri Health Service,Hospitals,Kaiber St,Kalbarri,WA,6536,(08) 9937 0100,,-27.712127,114.161164,,,,,,,,
Northam Health Service,Hospitals,Robinson St,Northam,WA,6401,(08) 9690 1300,,-31.649558,116.657905,,,,,,,,
North Ward Health Campus - Renal Unit,Hospitals,,North Ward,QLD,4810,(07) 4729 9340,,-19.2481227,146.8068341,,,,,,,,
North Eastern Soldiers Memorial Public Hospital,Hospitals,Cameron St,Scottsdale,TAS,7260,(03) 6778 8522,,-41.15,147.51,,,,,,,,
North Burnett District Health Service,Hospitals,69 Warton St,Gayndah,QLD,4625,(07) 4161 3500,,-25.63199,151.60495,,,,,,,,
"Normanby House, St George's Hospital",Hospitals,283 Cotham Rd,Kew,VIC,3101,(03) 9816 0478,,-37.808436,145.053068,,,,,,,,
NEMICS,Hospitals,C/o Austin Health 145 Studley Rd,Heidelberg,VIC,3084,(03) 9496 3322,,-37.756403,145.058681,,,,,,,,
Nelson Bay District Hospital,Hospitals,Trevally St,Nelson Bay,NSW,2315,(02) 4984 1344,,-32.72,152.15,,,,,,,,
Narembeen District Hospital,Hospitals,Lakeside Wing Ada St,Narembeen,WA,6369,(08) 9064 7234,,-32.061575,118.391274,,,,,,,,
Naracoorte Health Service Inc,Hospitals,Jenkins Tce,Naracoorte,SA,5271,(08) 8762 8100,,-36.961874,140.745656,,,,,,,,
Murwillumbah District Hospital,Hospitals,Ewing St,Murwillumbah,NSW,2484,(02) 6672 0000,,-28.323254,153.40047,,,,,,,,
Murray Bridge Soldiers' Memorial Hospital Inc,Hospitals,96 Swanport Rd,Murray Bridge,SA,5253,(08) 8535 6777,,-35.129044,139.280259,,,,,,,,
Mundubbera Multi-Purpose Health Service,Hospitals,Leichhardt St,Mundubbera,QLD,4626,(07) 4165 5200,,-25.586813,151.293662,,,,,,,,
Mullewa Hospital,Hospitals,Elder St,Mullewa,WA,6630,(08) 9961 6200,,-28.535054,115.512116,,,,,,,,
Mt Perry Health Centre,Hospitals,Heussman St,Mt Perry,QLD,4671,(07) 4156 2300,,-25.180696,151.646057,,,,,,,,
Mt Morgan General Hospital,Hospitals,Black St,Mt Morgan,QLD,4714,(07) 4938 1311,,-23.647182,150.391888,,,,,,,,
Mount Gambier And Districts Health Service Inc,Hospitals,Wehl St North,Mt Gambier,SA,5290,(08) 8721 1200,,-37.81422,140.780587,,,,,,,,
Mossman Multi Purpose Health Service,Hospitals,9 Hospital St,Mossman,QLD,4873,(07) 4084 1200,,-16.463937,145.368177,,,,,,,,
Morven Hospital,Hospitals,Charleville Rd,Morven,QLD,4468,(07) 4654 8288,,-26.437869,147.01988,,,,,,,,
Mornington Hospital,Hospitals,Gununa,Mornington Island,QLD,4871,(07) 4745 7209,,-17.865932,146.102796,,,,,,,,
Monto Health Service,Hospitals,Flinders St,Monto,QLD,4630,(07) 4166 9300,,-24.864409,151.112146,,,,,,,,
Midlands Multi-Purpose Health Centre,Hospitals,13 Church St,Oatlands,TAS,7120,(03) 6135 0540,,-42.2992,147.369492,,,,,,,,
