Category,Name,Address,Suburb,State,Postcode,CombinedAddress,Latitude,Longitude,Fax,Email,Website,Staff,Established,ABN,ABN_Status,ABN_Type,ABN_Accuracy
Religious Organisations,Aboriginal Evangelical Fellowship,16 Highclere Blv,Marangaroo,WA,6064,16 Highclere Blv.Marangaroo.WA.6064,-31.8327742,115.8379199,,,,,,14 719 010 013,Active,Entity Name,25% ABN Accuracy
Religious Organisations,Adelaide College of Ministries Incorporated,20A Fourth Ave,Klemzig,SA,5087,20A Fourth Ave.Klemzig.SA.5087,-34.8772483,138.6393577,,,,,,81 588 746 059,Active,Entity Name,25% ABN Accuracy
Religious Organisations,Anglican Institute Of Theology,Wollaston Education Centre Wollaston Rd,Mt Claremont,WA,6010,Wollaston Education Centre Wollaston Rd.Mt Claremont.WA.6010,-31.9566822,115.7700958,,,,,,59 962 540 635,Active,Other Name,25% ABN Accuracy
Religious Organisations,AngliCORD,Trinity Hall 16 Trinity Pl,East Melbourne,VIC,3002,Trinity Hall 16 Trinity Pl.East Melbourne.VIC.3002,-37.8146289,144.983708,,,,,,39 116 072 050,Active,Entity Name,25% ABN Accuracy
Religious Organisations,Archbishop Mannix Missionary College,Ventnor St,Oakleigh,VIC,3166,Ventnor St.Oakleigh.VIC.3166,-37.8893752,145.0991117,,,,,,43 206 946 086,Active,DGR Name,25% ABN Accuracy
Religious Organisations,Australia for Christ Fellowship,1070 Stud Rd,Rowville,VIC,3178,1070 Stud Rd.Rowville.VIC.3178,-37.9156344,145.2339049,(03) 9764 8011,info@acfchurch.com,www.acfchurch.com,,1986,32 006 659 356,Active,Entity Name,25% ABN Accuracy
Religious Organisations,Australian Province of The Society of Jesus,130 Power St,Hawthorn,VIC,3122,130 Power St.Hawthorn.VIC.3122,-37.8224404,145.0256113,,,,,,19 179 772 790,Active,Entity Name,25% ABN Accuracy
Religious Organisations,Belgrave Heights Convention Centre Office,3 Convention Ave,Belgrave Heights,VIC,3160,3 Convention Ave.Belgrave Heights.VIC.3160,-37.9267738,145.3498668,,,,,,87 004 352 685,Active,Entity Name,25% ABN Accuracy
Religious Organisations,Belgrave Heights Convention Lodge,23 Lockwood Rd,Belgrave Heights,VIC,3160,23 Lockwood Rd.Belgrave Heights.VIC.3160,-37.9233949,145.3481813,,,,,,87 004 352 685,Active,Entity Name,25% ABN Accuracy
Religious Organisations,Bethel Life Centre,111 George Way,Cannington,WA,6107,111 George Way.Cannington.WA.6107,-32.0110762,115.9364594,,,,,,35 504 275 391,Active,Entity Name (Historic),25% ABN Accuracy
Religious Organisations,Bible Translators,70 Graham Rd,Kangaroo Ground,VIC,3097,70 Graham Rd.Kangaroo Ground.VIC.3097,-37.6890916,145.2086424,,,http://www.wycliffe.org.au,,,22 004 705 953,Active,Entity Name,25% ABN Accuracy
Religious Organisations,Bright Moon Buddhist Society,536 Springvale Rd,Springvale,VIC,3171,536 Springvale Rd.Springvale.VIC.3171,-37.974169,145.147561,,,,,,88 245 919 930,Active,Entity Name,25% ABN Accuracy
Religious Organisations,Buddhist Meditation Centre,12 Horwood St,Whyalla,SA,5600,12 Horwood St.Whyalla.SA.5600,-33.0340871,137.5874982,,,,,,19 727 954 271,Active,Entity Name,25% ABN Accuracy
Religious Organisations,Buddhist Society Of Victoria,71 Darling Rd,Malvern East,VIC,3145,71 Darling Rd.Malvern East.VIC.3145,-37.8780209,145.0588342,,,,,,89 738 755 249,Active,Entity Name,25% ABN Accuracy
Religious Organisations,Buddhist Society Of Western Australia (Inc),18 Nanson Way,Nollamara,WA,6061,18 Nanson Way.Nollamara.WA.6061,-31.8871724,115.8423333,,,,,,22 382 478 365,Active,Entity Name,25% ABN Accuracy
Religious Organisations,Buddhist Society Of Western Australia (Inc),287 Reen Rd,Gidgegannup,WA,6083,287 Reen Rd.Gidgegannup.WA.6083,-31.7822388,116.1706626,,,,,,22 382 478 365,Active,Entity Name,25% ABN Accuracy
Religious Organisations,Bush Church Aid Society,30 Croydon Rd,Keswick,SA,5035,30 Croydon Rd.Keswick.SA.5035,-34.9442273,138.5780883,,,,,,38 434 490 314,Active,Entity Name,25% ABN Accuracy
Religious Organisations,Bush Church Aid Society,1 Burgundy St,Heidelberg,VIC,3084,1 Burgundy St.Heidelberg.VIC.3084,-37.7563978,145.0720368,,,www.bushchurchaid.com.au,,,38 434 490 314,Active,Entity Name,25% ABN Accuracy
Religious Organisations,Calvary Worship Centre,Shop 20 Springvale Plaza 792-806 Heatherton Rd,Springvale,VIC,3171,Shop 20 Springvale Plaza 792-806 Heatherton Rd.Springvale.VIC.3171,-37.9616833,145.1505334,,,,,,83 386 320 815,Active,Entity Name,25% ABN Accuracy
Religious Organisations,Chabad House of Bentleigh,13-17 Cecil St,Bentleigh East,VIC,3165,13-17 Cecil St.Bentleigh East.VIC.3165,-37.9195094,145.0715142,,,,,,50 203 376 804,Active,Entity Name,25% ABN Accuracy
Religious Organisations,Chabad House Of Malvern,316 Glenferrie Rd,Armadale,VIC,3143,316 Glenferrie Rd.Armadale.VIC.3143,-37.8521138,145.0302682,,,,,,31 899 232 724,Active,Entity Name,25% ABN Accuracy
Religious Organisations,Challenge Literature Fellowship (Aust),59B Kelvin Rd,Wattle Grove,WA,6107,59B Kelvin Rd.Wattle Grove.WA.6107,-32.0177,116.02123,,john@challengenews.org,http://www.challengenews.org,,,98 206 125 814,Active,Trading Name,25% ABN Accuracy
Religious Organisations,Child Evangelism Fellowship,7 High St,Sheffield,TAS,7306,7 High St.Sheffield.TAS.7306,-41.3850517,146.3215233,,,,,,27 003 210 624,Active,Entity Name,25% ABN Accuracy
Religious Organisations,Child Evangelism Fellowship,1089 Riversdale Rd,Surrey Hills,VIC,3127,1089 Riversdale Rd.Surrey Hills.VIC.3127,-37.8371168,145.1089193,,,,,,27 003 210 624,Active,Entity Name,25% ABN Accuracy
Religious Organisations,Chinese Christian Association of Australia,1027 Whitehorse Rd,Box Hill,VIC,3128,1027 Whitehorse Rd.Box Hill.VIC.3128,-37.8181004,145.1263285,,,,,,22 613 345 483,Active,Entity Name,25% ABN Accuracy
Religious Organisations,Chinese Christian Church Of Victoria Inc,67 Springvale Rd,Nunawading,VIC,3131,67 Springvale Rd.Nunawading.VIC.3131,-37.8126847,145.1775964,,,,,,70 972 235 132,Active,Entity Name,25% ABN Accuracy
Religious Organisations,Christian & Missionary Alliance,Cnr Montague Rd and Dwight St,Modbury,SA,5092,Cnr Montague Rd and Dwight St.Modbury.SA.5092,-34.8291501,138.6692218,,,,,,72 368 044 741,Active,Entity Name,25% ABN Accuracy
Religious Organisations,Church Of Jesus Christ Of Latter Day Saints,Ollerton Ave,Newborough,VIC,3825,Ollerton Ave.Newborough.VIC.3825,-38.1800015,146.2814781,,,,,,87 586 411 904,Active,Entity Name (Historic),25% ABN Accuracy
Religious Organisations,Church Of Jesus Christ Of Latter-Day-Saints,628 Canterbury Rd,Mitcham,VIC,3132,628 Canterbury Rd.Mitcham.VIC.3132,-37.8361211,145.1964198,,,,,,87 586 411 904,Active,Entity Name (Historic),25% ABN Accuracy
Religious Organisations,Church On the Rock,180-184 Bathurst St,Hobart,TAS,7000,180-184 Bathurst St.Hobart.TAS.7000,-42.8843097,147.3214285,,,,,,15 629 317 950,Active,Entity Name,25% ABN Accuracy
Religious Organisations,Churches Commission on Education,272 Selby St,Wembley,WA,6014,272 Selby St.Wembley.WA.6014,-31.9318006,115.8044806,,,,,,70 172 899 396,Active,Entity Name,25% ABN Accuracy
Religious Organisations,City on a Hill: Melbourne,Level 3/ 211 La Trobe St,Melbourne,VIC,3000,Level 3/ 211 La Trobe St.Melbourne.VIC.3000,-37.8105556,144.9630556,,info@cityonahill.com.au,http://www.cityonahill.com.au,,,43 292 063 559,Active,Entity Name,25% ABN Accuracy
Religious Organisations,City Revival Ministries,44 Memorial Dr,Noble Park,VIC,3174,44 Memorial Dr.Noble Park.VIC.3174,-37.9597912,145.1718323,,josehnry@gmail.com,http://www.cityrevivalministries.org,,,52 052 772 552,Active,Entity Name,25% ABN Accuracy
Religious Organisations,Council For Christian Education,Level 5/ 695 Burke Rd,Camberwell,VIC,3124,Level 5/ 695 Burke Rd.Camberwell.VIC.3124,-37.8321817,145.0560992,,,,,,43 139 580 746,Active,Entity Name,25% ABN Accuracy
Religious Organisations,Dallas Welfare & Youth Services Inc,26 Millewa Crst,Dallas,VIC,3047,26 Millewa Crst.Dallas.VIC.3047,-37.6741504,144.9291091,,,,,,39 851 031 355,Active,Entity Name,25% ABN Accuracy
Religious Organisations,David Glory Group,Level 50 101 Collins St,Melbourne,VIC,3000,Level 50 101 Collins St.Melbourne.VIC.3000,-37.814531,144.9702911,,,,,,38 060 005 076,Active,Entity Name,25% ABN Accuracy
Religious Organisations,Federation Of Australian Buddhist Councils,,Footscray West,VIC,3012,.Footscray West.VIC.3012,-37.8006709,144.8716645,,,www.buddhistcouncil.org.au,,,65 862 613 089,Active,Entity Name,25% ABN Accuracy
Religious Organisations,Freedom Church,8 Kaloorup Rd,Vasse,WA,6280,8 Kaloorup Rd.Vasse.WA.6280,-33.6781936,115.248358,,thomasgcooper@hotmail.com,http://www.freedomchurchsouthwest.com,,,89 332 704 878,Active,Entity Name,25% ABN Accuracy
Religious Organisations,Grace Lutheran Church,15 Wembley Ave,Bridgewater,SA,5155,15 Wembley Ave.Bridgewater.SA.5155,-35.0104747,138.7557614,,,,,,63 176 797 960,Active,Entity Name,25% ABN Accuracy
Religious Organisations,Hamilton Hill Bible Church,56-60 Redmond Rd,Hamilton Hill,WA,6163,56-60 Redmond Rd.Hamilton Hill.WA.6163,-32.081821,115.790272,,,,,,53 415 231 227,Active,Entity Name (Historic),25% ABN Accuracy
Religious Organisations,Hare Krishna Movement,197 Danks St,Albert Park,VIC,3206,197 Danks St.Albert Park.VIC.3206,-37.8480757,144.953967,,,,,,53 390 638 202,Active,Entity Name (Historic),25% ABN Accuracy
Religious Organisations,Holy Spirit Catholic Church,147 Seperation St,Bell Park,VIC,3215,147 Seperation St.Bell Park.VIC.3215,-38.1107036,144.338389,,,,,,60 144 969 790,Active,Entity Name,25% ABN Accuracy
Religious Organisations,Initiatives of Change,226 Kooyong Rd,Toorak,VIC,3142,226 Kooyong Rd.Toorak.VIC.3142,-37.840517,145.023803,,,,,,22 004 350 789,Active,Entity Name,25% ABN Accuracy
Religious Organisations,Interserve (Australia),28 Croydon Rd,Keswick,SA,5035,28 Croydon Rd.Keswick.SA.5035,-34.9441072,138.577971,,,,,,12 041 298 204,Active,Entity Name,25% ABN Accuracy
Religious Organisations,Islamic Co-Ordinating Council of Victoria,155 Lygon St,Brunswick East,VIC,3057,155 Lygon St.Brunswick East.VIC.3057,-37.7732882,144.9710576,,,,,,60 284 069 184,Active,Entity Name,25% ABN Accuracy
Religious Organisations,Islamic Society of Melbourne Eastern Region,1273 Wellington Rd,Lysterfield,VIC,3156,1273 Wellington Rd.Lysterfield.VIC.3156,-37.927981,145.2709794,,,,,,36 974 270 612,Active,Entity Name,25% ABN Accuracy
Religious Organisations,Jewish Learning Centre,338 Greenhill Rd,Glenside,SA,5065,338 Greenhill Rd.Glenside.SA.5065,-34.9397275,138.6384435,,,,,,58 075 310 575,Active,Entity Name,25% ABN Accuracy
Religious Organisations,Jewish National Fund,61 Woodrow Ave,Yokine,WA,6060,61 Woodrow Ave.Yokine.WA.6060,-31.9007739,115.8628216,,,,,,32 108 796 878,Active,Entity Name,25% ABN Accuracy
Religious Organisations,Kagyu E-Vam Buddhist Institute,673 Lygon St,Carlton North,VIC,3054,673 Lygon St.Carlton North.VIC.3054,-37.780092,144.970099,,,,,,30 414 677 915,Active,Trading Name,25% ABN Accuracy
Religious Organisations,Khesed Ministries,Latimer Way,Langford,WA,6147,Latimer Way.Langford.WA.6147,-32.0407947,115.9510007,,,,,,93 136 869 323,Active,Trading Name,25% ABN Accuracy
Religious Organisations,Kingdomcity Perth,15 Finlay Pl,Wangara,WA,6065,15 Finlay Pl.Wangara.WA.6065,-31.7863238,115.8108606,,,Visit Our Website,,,97 787 651 869,Active,Entity Name,25% ABN Accuracy
Religious Organisations,Knights Of The Southern Cross (S.A.) Incorporated,336 Marion Rd,North Plympton,SA,5037,336 Marion Rd.North Plympton.SA.5037,-34.9551269,138.5540121,,,,,,66 020 002 957,Active,Entity Name,25% ABN Accuracy
Religious Organisations,KPMG TRUST,Suite 11/ 1101 Hay St,West Perth,WA,6005,Suite 11/ 1101 Hay St.West Perth.WA.6005,-31.9501499,115.8456375,,info@kpmgtrust.com,http://www.kpmgtrust.com,,,43 841 587 842,Active,Entity Name,25% ABN Accuracy
Religious Organisations,Legion Of Mary,36 Windsor St,Perth,WA,6000,36 Windsor St.Perth.WA.6000,-31.9437077,115.8742875,,,,,,48 936 250 135,Active,Entity Name (Historic),25% ABN Accuracy
Religious Organisations,Legion Of Mary Senatus Of Melbourne,456 Queensberry St,North Melbourne,VIC,3051,456 Queensberry St.North Melbourne.VIC.3051,-37.8031233,144.9521823,,,,,,36 742 986 516,Active,Entity Name,25% ABN Accuracy
Religious Organisations,LifeWorks Relationship Counselling & Education Services,1/ 666 Mountain Hwy,Bayswater,VIC,3153,1/ 666 Mountain Hwy.Bayswater.VIC.3153,-37.8418967,145.2632585,,lifeworks@lifeworks.com.au,http://www.lifeworks.com.au,,,50 071 373 950,Active,DGR Name (Historic),25% ABN Accuracy
Religious Organisations,Lutheran Media,197 Archer St,North Adelaide,SA,5006,197 Archer St.North Adelaide.SA.5006,-34.9080978,138.5937564,,luthmedia@lca.org.au,www.lutheranmedia.org.au,,,99 476 253 356,Active,Entity Name,25% ABN Accuracy
Religious Organisations,Melbourne Thai Buddhist Temple,489 Elgar Rd,Box Hill,VIC,3128,489 Elgar Rd.Box Hill.VIC.3128,-37.8128778,145.1154056,,,,,,85 556 874 186,Active,Entity Name,25% ABN Accuracy
Religious Organisations,Middle East Christian Outreach,5 Court St,Box Hill,VIC,3128,5 Court St.Box Hill.VIC.3128,-37.8177215,145.12618,,,,,,59 615 943 131,Active,Entity Name,25% ABN Accuracy
Religious Organisations,Missionary Training College,Station Rd,St Leonards,TAS,7250,Station Rd.St Leonards.TAS.7250,-41.4611119,147.1968243,,,,,,22 000 637 749,Active,Business Name (Historic),25% ABN Accuracy
Religious Organisations,MST Melbourne School of Theology,5 Burwood Hwy,Wantirna,VIC,3152,5 Burwood Hwy.Wantirna.VIC.3152,-37.8596398,145.2096094,,,,,,58 004 265 016,Active,Entity Name,25% ABN Accuracy
Religious Organisations,Nations Church,10 Hayden Ct,Myaree,WA,6154,10 Hayden Ct.Myaree.WA.6154,-32.0444058,115.8178394,,info@nationschurch.com,http://www.nationschurch.com,,,20 739 138 976,Active,Entity Name,25% ABN Accuracy
Religious Organisations,New Life Christian Centre,105 Dyson Rd,Christies Beach,SA,5165,105 Dyson Rd.Christies Beach.SA.5165,-35.1371374,138.4857682,,,,,,37 407 781 196,Active,Entity Name,25% ABN Accuracy
Religious Organisations,Northside Baptist Church,145 Nelson Rd,Para Vista,SA,5093,145 Nelson Rd.Para Vista.SA.5093,-34.8334689,138.6614869,,,,,1978,24 318 383 986,Active,Entity Name,25% ABN Accuracy
Religious Organisations,OAC Ministries,Dorene St,St Marys,SA,5042,Dorene St.St Marys.SA.5042,-35.0010728,138.5790411,,,,,,59 000 275 829,Active,Entity Name,25% ABN Accuracy
Religious Organisations,OAC Ministries (Aust),9 Castlemain Hts,Leeming,WA,6149,9 Castlemain Hts.Leeming.WA.6149,-32.0750517,115.8822581,,,,,,59 000 275 829,Active,Entity Name,25% ABN Accuracy
Religious Organisations,ONE Life Church,13-15 Ormsby Ave,Parafield Gardens,SA,5107,13-15 Ormsby Ave.Parafield Gardens.SA.5107,-34.7883468,138.6162197,,pastorjeff.marshall@gmail.com,http://www.gardenschurch.org,,,93 833 865 791,Active,Entity Name,25% ABN Accuracy
Religious Organisations,Order Of St Luke The Physician In Australia,112 100 Harold St,Wantirna,VIC,3152,112 100 Harold St.Wantirna.VIC.3152,-37.853066,145.2276675,(03) 9837 5101,,,,,70 001 220 631,Active,Entity Name,25% ABN Accuracy
Religious Organisations,Potters House Christian Centre Midland,12 Loton Ave,Midland,WA,6056,12 Loton Ave.Midland.WA.6056,-31.8930506,116.0154588,,danivee@live.com.au,www.pottershousemidland.com,,,35 214 126 727,Active,Entity Name,25% ABN Accuracy
Religious Organisations,Presbyterian Church In Western Australia,14 Broadway St,Bassendean,WA,6054,14 Broadway St.Bassendean.WA.6054,-31.9022709,115.9452522,,,,,,88 617 816 558,Active,Entity Name,25% ABN Accuracy
Religious Organisations,Presbyterian Church In Western Australia,,Bicton,WA,6157,.Bicton.WA.6157,-32.0299295,115.7846258,,,,,,88 617 816 558,Active,Entity Name,25% ABN Accuracy
Religious Organisations,Reach Community Church,Unit 2 177 Beavers Rd,Northcote,VIC,3070,Unit 2 177 Beavers Rd.Northcote.VIC.3070,-37.7658312,144.9860536,,info@reachcc.org,www.reachcc.org,,,28 820 048 811,Active,Entity Name,25% ABN Accuracy
Religious Organisations,Real Life Church,,suppressed,suppressed,,.suppressed.suppressed.,,,,rochelle@reallifechurchwa.com,http://REALLIFECHURCHWA.COM,,,65 217 939 953,Active,Entity Name,25% ABN Accuracy
Religious Organisations,Rejoice Chinese Christian Communication Centre,Ste 7/ 2 Burwood Hwy,Burwood East,VIC,3151,Ste 7/ 2 Burwood Hwy.Burwood East.VIC.3151,-37.8523464,145.1325502,,,,,,99 027 261 737,Active,Entity Name,25% ABN Accuracy
Religious Organisations,Revival Fellowship Warrnambool,,Warrnambool,VIC,3280,.Warrnambool.VIC.3280,-38.3720954,142.4777782,,,,,,88 541 921 783,Active,Entity Name,25% ABN Accuracy
Religious Organisations,S A Zhulin Buddhist Association,151 May Tce,Ottoway,SA,5013,151 May Tce.Ottoway.SA.5013,-34.8425836,138.5376352,,,,,,97 409 763 363,Active,Entity Name,25% ABN Accuracy
Religious Organisations,Sai Baba Organisation,83 Glenhuntly Rd,Elwood,VIC,3184,83 Glenhuntly Rd.Elwood.VIC.3184,-37.882096,144.9831398,,,,,,98 679 526 281,Active,Entity Name,25% ABN Accuracy
Religious Organisations,Saint Ignatius Centre,110 Elizabeth St,Richmond,VIC,3121,110 Elizabeth St.Richmond.VIC.3121,-37.8123788,144.9984558,,,,,,72 005 269 554,Active,Business Name,25% ABN Accuracy
Religious Organisations,Salesian Society,25 Lipsett Tce,Brooklyn Park,SA,5032,25 Lipsett Tce.Brooklyn Park.SA.5032,-34.9297454,138.5486225,,,,,,62 009 477 918,Active,Entity Name,25% ABN Accuracy
Religious Organisations,Scripture Union Of Western Australia,82 Matlock St,Mt Hawthorn,WA,6016,82 Matlock St.Mt Hawthorn.WA.6016,-31.91989,115.83691,,,,,,34 474 372 309,Active,Entity Name,25% ABN Accuracy
Religious Organisations,Scripture Union Of Western Australia,7 Irvine St,Bayswater,WA,6053,7 Irvine St.Bayswater.WA.6053,-31.9117946,115.918019,,,www.suwa.org.au,,,34 474 372 309,Active,Entity Name,25% ABN Accuracy
Religious Organisations,Seaford Ecumenical Mission,Cnr Main and Grand Boulevard,Seaford,SA,5169,Cnr Main and Grand Boulevard.Seaford.SA.5169,-35.1853753,138.4809453,,,,,,40 683 967 385,Active,Entity Name,25% ABN Accuracy
Religious Organisations,Seventh Day Adventist Reform Movement,14 Gilbert Rd,Somerton Park,SA,5044,14 Gilbert Rd.Somerton Park.SA.5044,-34.9929889,138.5240958,,,,,,82 496 201 901,Active,Entity Name (Historic),25% ABN Accuracy
Religious Organisations,Social Policy Connections,34 Bedford St,Box Hill,VIC,3128,34 Bedford St.Box Hill.VIC.3128,-37.8267849,145.1321947,,admin@socialpolicyconnections.com.au,http://www.socialpolicyconnections.com.au/,,,97 387 847 085,Active,Entity Name,25% ABN Accuracy
Religious Organisations,Society Of Christian Doctrine,4 Sandleheath Rd,Elizabeth Grove,SA,5112,4 Sandleheath Rd.Elizabeth Grove.SA.5112,-34.7371675,138.6743376,,,,,,16 479 430 975,Active,Entity Name,25% ABN Accuracy
Religious Organisations,Society Of St Pius X,19 Tynong Rd,Tynong,VIC,3813,19 Tynong Rd.Tynong.VIC.3813,-38.083221,145.623687,,,,,,88 002 738 365,Active,Entity Name,25% ABN Accuracy
Religious Organisations,Society Of St Pius X,40 Ludstone St,Hampton,VIC,3188,40 Ludstone St.Hampton.VIC.3188,-37.933755,145.00825,,,,,,88 002 738 365,Active,Entity Name,25% ABN Accuracy
Religious Organisations,South Eastern Christian Centre,2- 8 Gleneagles Dr,Endeavour Hills,VIC,3802,2- 8 Gleneagles Dr.Endeavour Hills.VIC.3802,-37.966261,145.263642,,,secc.org.au,,,49 650 744 395,Active,Entity Name,25% ABN Accuracy
Religious Organisations,Spiritual Assembly of the Baha'is of Stirling,,Tuart Hill,WA,6060,.Tuart Hill.WA.6060,-31.8966012,115.8355193,,,,,,66 040 026 087,Active,Entity Name,25% ABN Accuracy
Religious Organisations,St Bartholomews House,Swan Unit,Midland,WA,6056,Swan Unit.Midland.WA.6056,-31.8918569,116.0134727,,,,,,92 491 228 162,Active,Entity Name,25% ABN Accuracy
Religious Organisations,St Brigid's Catholic Church,13 High St,Healesville,VIC,3777,13 High St.Healesville.VIC.3777,-37.6564368,145.5143964,,,www.stbrigidshealesville.cam.org.au/,,,99 374 070 760,Active,Entity Name,25% ABN Accuracy
Religious Organisations,St Columban's Mission Society Office,69 Woodland St,Essendon,VIC,3040,69 Woodland St.Essendon.VIC.3040,-37.7432131,144.9227742,,,www.columban.org.au,,,17 686 524 625,Active,Entity Name,25% ABN Accuracy
Religious Organisations,St Marks Community Centre,Cnr George and Moor Sts,Fitzroy,VIC,3065,Cnr George and Moor Sts.Fitzroy.VIC.3065,-37.8017189,144.9790365,,,,,,35 967 059 134,Active,Entity Name,25% ABN Accuracy
Religious Organisations,Subud Melbourne,166-168 Elder St,Heatherton,VIC,3202,166-168 Elder St.Heatherton.VIC.3202,-37.9476241,145.1013334,,,,,,54 320 269 704,Active,Entity Name,25% ABN Accuracy
Religious Organisations,Tasmanian Council Of Churches,35 Tower Rd,New Town,TAS,7008,35 Tower Rd.New Town.TAS.7008,-42.8516985,147.306732,,,,,,78 305 140 399,Active,Entity Name,25% ABN Accuracy
Religious Organisations,The Catholic Diocese of Broome,27 Robinson St,Broome,WA,6725,27 Robinson St.Broome.WA.6725,-17.960102,122.2377805,,,www.broomediocese.org/index.html,,,37 040 099 127,Active,Trading Name,25% ABN Accuracy
Religious Organisations,The Greek Orthodox Community Of SA,L 1 262-288 Franklin St,Adelaide,SA,5000,L 1 262-288 Franklin St.Adelaide.SA.5000,-34.9272745,138.5891371,,,http://www.gocsa.org.au,,,39 650 504 515,Active,Trading Name,25% ABN Accuracy
Religious Organisations,The Sufi Movement In Australia Inc,16 Petronella Ave,Wheelers Hill,VIC,3150,16 Petronella Ave.Wheelers Hill.VIC.3150,-37.9031427,145.1919855,,irenenuriadaly@iprimus.com.au,,,,65 200 668 712,Active,Entity Name,25% ABN Accuracy
Religious Organisations,Theosophical Society,,suppressed,suppressed,,.suppressed.suppressed.,,,,,,,,76 487 580 644,Active,Entity Name,25% ABN Accuracy
Religious Organisations,Tibetan Buddhist Society,1425 Mickleham Rd,Yuroke,VIC,3063,1425 Mickleham Rd.Yuroke.VIC.3063,-37.5946381,144.8804656,,contact@tushika.org,http://www.tibetanbuddhistsociety.org/,,,53 194 089 142,Active,Trading Name,25% ABN Accuracy
Religious Organisations,Tribunal Of The Catholic Church,383 Albert St,East Melbourne,VIC,3002,383 Albert St.East Melbourne.VIC.3002,-37.8100705,144.9776771,,,,,,39 028 643 733,Active,Trading Name,25% ABN Accuracy
Religious Organisations,Trinity North East,2-18 Golden Grove Rd,Modbury North,SA,5092,2-18 Golden Grove Rd.Modbury North.SA.5092,-34.8263298,138.6926785,,admin@trinitynortheast.org.au,http://www.trinitynortheast.org.au,,,46 556 124 243,Active,Entity Name,25% ABN Accuracy
Religious Organisations,Truth & Liberation Concern (Christian Community Church),265 Canterbury Rd,Bayswater North,VIC,3153,265 Canterbury Rd.Bayswater North.VIC.3153,-37.8315445,145.2743551,,,,,,76 587 071 524,Active,Entity Name,25% ABN Accuracy
Religious Organisations,Uniting Care Wesley Adelaide,Kuitpo Community Admnstrn and Rehabilitation,Hope Forest,SA,5172,Kuitpo Community Admnstrn and Rehabilitation.Hope Forest.SA.5172,-35.2795209,138.6212558,,,,,,33 174 490 373,Active,Other Name,25% ABN Accuracy
Religious Organisations,Victorian Council Of Christian Education,2A Chapel St,St Kilda,VIC,3182,2A Chapel St.St Kilda.VIC.3182,-37.858951,144.992994,,,,,,96 810 755 635,Active,Entity Name,25% ABN Accuracy
Religious Organisations,Vietnamese Christian Community Incorporated,29 South Tce,Pooraka,SA,5095,29 South Tce.Pooraka.SA.5095,-34.8351979,138.6126578,,,,,,35 403 543 569,Active,Entity Name (Historic),25% ABN Accuracy
Religious Organisations,Watchtower Bible & Tract Society,758 Nepean Hwy,Mt Martha,VIC,3934,758 Nepean Hwy.Mt Martha.VIC.3934,-38.2469992,145.0377535,,,,,,42 002 861 225,Active,Entity Name,25% ABN Accuracy
Religious Organisations,West City Christian Church,86-88 Central Ave,Altona Meadows,VIC,3028,86-88 Central Ave.Altona Meadows.VIC.3028,-37.8706321,144.7694552,,westcitychristianchurch@gmail.com,,,,29 995 453 295,Active,Entity Name,25% ABN Accuracy
Religious Organisations,Woman's Christian Temperance Union,Unit 17 4 Ventnor Ave,West Perth,WA,6005,Unit 17 4 Ventnor Ave.West Perth.WA.6005,-31.9509363,115.837809,,,,,,37 470 458 235,Active,Entity Name,25% ABN Accuracy
Religious Organisations,World to Christ International,,McKinnon,VIC,3204,.McKinnon.VIC.3204,-37.9104488,145.0337951,,wtciaus@gmail.com,http://www.wtci.org.au,,,96 802 114 776,Active,Entity Name,25% ABN Accuracy
Religious Organisations,Youth For Christ,60 Victoria St,Warragul,VIC,3820,60 Victoria St.Warragul.VIC.3820,-38.1596338,145.9302325,,,,,,75 034 537 271,Active,Entity Name,25% ABN Accuracy
Religious Organisations,CityLife Church,284 Thompsons Rd,Lower Templestowe,VIC,3107,284 Thompsons Rd.Lower Templestowe.VIC.3107,-37.7670778,145.1071093,,,,,,25 185 756 875,Cancelled,Trading Name,25% ABN Accuracy
Religious Organisations,Fruitful Vine Ministries,500 Kelletts Rd,Lysterfield,VIC,3156,500 Kelletts Rd.Lysterfield.VIC.3156,-37.92328,145.2819551,,,http://www.fruitfulvine.org,,,14 086 906 381,Cancelled,Entity Name,25% ABN Accuracy
Religious Organisations,Lutheran Church,8 Clarence St,Lameroo,SA,5302,8 Clarence St.Lameroo.SA.5302,-35.3264801,140.5137362,,,,,,74 195 858 811,Cancelled,Entity Name,25% ABN Accuracy
Religious Organisations,Mary MacKillop Centre,,Mt Eliza,VIC,3930,.Mt Eliza.VIC.3930,-38.1952209,145.0879338,,retreat.mteliza@sosj.org.au,,,,49 167 462 561,Cancelled,Entity Name,25% ABN Accuracy
Religious Organisations,Mission Interlink,44 Rutland Rd,Box Hill,VIC,3128,44 Rutland Rd.Box Hill.VIC.3128,-37.8203628,145.1265908,,,,,,16 270 803 390,Cancelled,Trading Name,25% ABN Accuracy
Religious Organisations,Mission Travel,605 Camberwell Rd,Camberwell,VIC,3124,605 Camberwell Rd.Camberwell.VIC.3124,-37.8472382,145.0751389,,,http://www.missiontravel.com.au/,,,91 534 867 393,Cancelled,Other Name,25% ABN Accuracy
Religious Organisations,South American Missionary Society,149 Broadgully Rd,Diamond Creek,VIC,3089,149 Broadgully Rd.Diamond Creek.VIC.3089,-37.668082,145.1627856,,,,,,32 223 440 634,Cancelled,Entity Name,25% ABN Accuracy
Religious Organisations,Students for Christ Victoria & Tasmania,11- 17 Evans St,Burwood,VIC,3125,11- 17 Evans St.Burwood.VIC.3125,-37.8531163,145.1023569,,,,,,30 754 803 649,Cancelled,Trading Name,25% ABN Accuracy
Religious Organisations,Sukyo Mahikari Australia,Hobart Centre 1st Floor Biggins Block Old Hobart High School,North Hobart,TAS,7000,Hobart Centre 1st Floor Biggins Block Old Hobart High School.North Hobart.TAS.7000,-42.8707933,147.3166017,,,,,,34 310 903 471,Cancelled,Entity Name,25% ABN Accuracy
Religious Organisations,Anglicare Tasmania Inc,6 Strahan St,South Burnie,TAS,7320,6 Strahan St.South Burnie.TAS.7320,-41.0592613,145.9078521,,,,,,90 979 742 836,Active,Entity Name,50% ABN Accuracy
Religious Organisations,Assemblies Of God,114 Nollamara Ave,Nollamara,WA,6061,114 Nollamara Ave.Nollamara.WA.6061,-31.8809696,115.8472318,,,,,,16 231 783 503,Active,Entity Name,50% ABN Accuracy
Religious Organisations,Assembly Of God,65 Albert St,Sebastopol,VIC,3356,65 Albert St.Sebastopol.VIC.3356,-37.5874459,143.841344,,office@citychurchballarat.com,http://www.citychurchballarat.com,,,60 909 571 262,Active,Trading Name,50% ABN Accuracy
Religious Organisations,Assembly Of God,88 Main Rd,Hepburn Springs,VIC,3461,88 Main Rd.Hepburn Springs.VIC.3461,-37.3151819,144.1378618,,office@citychurchballarat.com,http://www.Citychurchballarat.com,,,60 909 571 262,Active,Trading Name,50% ABN Accuracy
Religious Organisations,Australian Christian Churches,300 Albert St,East Melbourne,VIC,3002,300 Albert St.East Melbourne.VIC.3002,-37.8098951,144.9816961,,,,,,58 123 514 361,Active,Entity Name,50% ABN Accuracy
Religious Organisations,Australian Fellowship Of Evangelical Students,29 Deepdean Ave,Mitchell Park,SA,5043,29 Deepdean Ave.Mitchell Park.SA.5043,-35.0090147,138.5653772,,,,,,91 509 626 599,Active,Entity Name,50% ABN Accuracy
Religious Organisations,Catholic Church,Kentish Rd,Gawler Belt,SA,5118,Kentish Rd.Gawler Belt.SA.5118,-34.5794358,138.7323038,,,,,,45 373 620 104,Active,Business Name,50% ABN Accuracy
Religious Organisations,Catholic Development Fund,65 Foster St,Sale,VIC,3850,65 Foster St.Sale.VIC.3850,-38.1113214,147.0633659,,,,,,15 274 943 760,Active,Trading Name,50% ABN Accuracy
Religious Organisations,Catholic Development Fund,Cnr Yarra and Myer Sts,Geelong,VIC,3220,Cnr Yarra and Myer Sts.Geelong.VIC.3220,-38.152145,144.3613451,,,,,,15 274 943 760,Active,Trading Name,50% ABN Accuracy
Religious Organisations,Catholic Development Fund,160 Foster St,Dandenong,VIC,3175,160 Foster St.Dandenong.VIC.3175,-37.989254,145.2177647,,,,,,15 274 943 760,Active,Trading Name,50% ABN Accuracy
Religious Organisations,Catholic Development Fund,96 Wellington Parade,East Melbourne,VIC,3002,96 Wellington Parade.East Melbourne.VIC.3002,-37.8163605,144.9869114,,invest@melbcdf.org.au,www.melbcdf.org.au,,,15 274 943 760,Active,Trading Name,50% ABN Accuracy
Religious Organisations,Catholic Education Office,,Broome,WA,6725,.Broome.WA.6725,-17.96182,122.236998,,,,,,91 893 631 195,Active,Entity Name,50% ABN Accuracy
Religious Organisations,Catholic Parish,34 Santa Gertrudis Dr,Lower Chittering,WA,6084,34 Santa Gertrudis Dr.Lower Chittering.WA.6084,-31.5605371,116.0781125,,,http://www.ginginchitteringparish.org.au,,,25 328 758 007,Active,Other Name,50% ABN Accuracy
Religious Organisations,Chabad House,,Launceston,TAS,7250,.Launceston.TAS.7250,-41.439068,147.1357671,,,,,,69 075 532 197,Active,Entity Name (Historic),50% ABN Accuracy
Religious Organisations,Christian Business Men - Australia,1A Sandford St,Tea Tree Gully,SA,5091,1A Sandford St.Tea Tree Gully.SA.5091,-34.8194736,138.7226522,,,,,,42 005 622 515,Active,Business Name,50% ABN Accuracy
Religious Organisations,Christian Church In Australia,111 George Way,Cannington,WA,6107,111 George Way.Cannington.WA.6107,-32.0110762,115.9364594,,,,,,44 902 486 497,Active,Entity Name,50% ABN Accuracy
Religious Organisations,Christian Family Church,33 Cants Rd,Colac,VIC,3250,33 Cants Rd.Colac.VIC.3250,-38.3405406,143.5684293,,,,,,17 073 741 934,Active,Entity Name (Historic),50% ABN Accuracy
Religious Organisations,Christian Outreach Centre,40 Donovans Rd,Warrnambool,VIC,3280,40 Donovans Rd.Warrnambool.VIC.3280,-38.3663025,142.4888369,,,,,,72 157 669 672,Active,Entity Name,50% ABN Accuracy
Religious Organisations,Common Ground Church,Maiden Gully Hall Carolyn Way,Maiden Gully,VIC,3551,Maiden Gully Hall Carolyn Way.Maiden Gully.VIC.3551,-36.7431117,144.2100572,,info@commongroundlife.com.au,http://www.commongroundlife.com.au,,,53 573 084 286,Active,Entity Name,50% ABN Accuracy
Religious Organisations,Congregational Christian Church in Samoa Melbourne Parish Inc.,1 Hollow Way,Mill Park,VIC,3082,1 Hollow Way.Mill Park.VIC.3082,-37.6544138,145.0604313,,cccsmelbparish@yahoo.com.au,,,,39 097 054 918,Active,Entity Name,50% ABN Accuracy
Religious Organisations,Connect Christian Church,6 Bray St,Hastings,VIC,3915,6 Bray St.Hastings.VIC.3915,-38.3135568,145.1813525,,,,,,11 170 013 113,Active,Trading Name,50% ABN Accuracy
Religious Organisations,Coptic Orthodox Church,318 Shepperton Rd,East Victoria Park,WA,6101,318 Shepperton Rd.East Victoria Park.WA.6101,-31.987422,115.9098184,,,,,,73 797 860 219,Active,Trading Name,50% ABN Accuracy
Religious Organisations,Croatian Catholic Centre,171 South Rd,Ridleyton,SA,5008,171 South Rd.Ridleyton.SA.5008,-34.8950867,138.5685058,,,,,,53 848 303 699,Active,Trading Name,50% ABN Accuracy
Religious Organisations,Daniel Villani,12 Loton Ave,Midland,WA,6056,12 Loton Ave.Midland.WA.6056,-31.8930506,116.0154588,,,,,,26 318 079 970,Active,Entity Name,50% ABN Accuracy
Religious Organisations,Daughters Of Charity,8 Wairoa Ave,Brighton,VIC,3186,8 Wairoa Ave.Brighton.VIC.3186,-37.9044691,145.0131049,,,,,,37 783 925 190,Active,Trading Name,50% ABN Accuracy
Religious Organisations,Greek Orthodox Archdiocese Of Australia,23-29 Victoria St,Coburg,VIC,3058,23-29 Victoria St.Coburg.VIC.3058,-37.743072,144.963871,,,,,,69 434 479 912,Active,Entity Name,50% ABN Accuracy
Religious Organisations,Greek Orthodox Archdiocese Of Australia,1 Gladstone St,Moonee Ponds,VIC,3039,1 Gladstone St.Moonee Ponds.VIC.3039,-37.7690212,144.923657,,,,,,69 434 479 912,Active,Entity Name,50% ABN Accuracy
Religious Organisations,Greek Orthodox Archdiocese Of Australia,44 Knight St,Clayton,VIC,3168,44 Knight St.Clayton.VIC.3168,-37.928593,145.115029,,,,,,69 434 479 912,Active,Entity Name,50% ABN Accuracy
Religious Organisations,Greek Orthodox Archdiocese Of Australia,531 Centre Rd,Bentleigh,VIC,3204,531 Centre Rd.Bentleigh.VIC.3204,-37.9192729,145.0467105,,,,,,69 434 479 912,Active,Entity Name,50% ABN Accuracy
Religious Organisations,Greek Orthodox Archdiocese Of Australia,7 Macedon Ave,Balwyn North,VIC,3104,7 Macedon Ave.Balwyn North.VIC.3104,-37.7921772,145.0726317,,,,,,69 434 479 912,Active,Entity Name,50% ABN Accuracy
Religious Organisations,Greek Orthodox Archdiocese Of Australia,1 Hopetoun Parade,Box Hill,VIC,3128,1 Hopetoun Parade.Box Hill.VIC.3128,-37.819219,145.1190907,,,,,,69 434 479 912,Active,Entity Name,50% ABN Accuracy
Religious Organisations,Iglesia Ni Cristo,241 Civic Parade,Altona,VIC,3018,241 Civic Parade.Altona.VIC.3018,-37.8624402,144.8142094,,,,,,46 002 812 259,Active,Entity Name,50% ABN Accuracy
Religious Organisations,Integrated Profit Solutions,10 Fellows Rd,Point Lonsdale,VIC,3225,10 Fellows Rd.Point Lonsdale.VIC.3225,-38.2852466,144.6033696,,,http://www.profitsolutions.com.au/,,,28 006 310 952,Active,Business Name (Historic),50% ABN Accuracy
Religious Organisations,Jehovah's Witnesses,1A Mary Ct,Robinvale,VIC,3549,1A Mary Ct.Robinvale.VIC.3549,-34.5953605,142.7753875,,,,,,42 002 861 225,Active,Trading Name,50% ABN Accuracy
Religious Organisations,LifeLink,23 Victoria Sq,Perth,WA,6000,23 Victoria Sq.Perth.WA.6000,-31.9555048,115.8654633,,,,,,48 725 340 574,Active,Trading Name,50% ABN Accuracy
Religious Organisations,Lutheran Church of Australia,182 Hancock Rd,Tea Tree Gully,SA,5091,182 Hancock Rd.Tea Tree Gully.SA.5091,-34.8194328,138.7182404,,,,,,45 585 856 589,Active,Entity Name (Historic),50% ABN Accuracy
Religious Organisations,Mission To Seafarers,61 Cliff St,Portland,VIC,3305,61 Cliff St.Portland.VIC.3305,-38.3523501,141.6094505,,,,,,90 430 045 030,Active,Entity Name,50% ABN Accuracy
Religious Organisations,Presentation Sisters,22 Arbon Way,Lockridge,WA,6054,22 Arbon Way.Lockridge.WA.6054,-31.8801704,115.9512575,,,,,,90 115 490 579,Active,Trading Name,50% ABN Accuracy
Religious Organisations,Scripture Union,34 Paterson St,Launceston,TAS,7250,34 Paterson St.Launceston.TAS.7250,-41.436556,147.137156,,,,,,34 474 372 309,Active,Trading Name,50% ABN Accuracy
Religious Organisations,Scripture Union Victoria,157 Heidelberg Rd,Northcote,VIC,3070,157 Heidelberg Rd.Northcote.VIC.3070,-37.7835702,145.0068632,,,,,,17 004 391 208,Active,Entity Name,50% ABN Accuracy
Religious Organisations,Seventh-Day Adventist Community Services,,Prospect,SA,5082,.Prospect.SA.5082,-34.8882202,138.5941014,,,,,,52 000 003 930,Active,Business Name (Historic),50% ABN Accuracy
Religious Organisations,Soka Gakkai International Australia,12 Ripon Gr,Elsternwick,VIC,3185,12 Ripon Gr.Elsternwick.VIC.3185,-37.8833747,144.9993522,,,,,,74 005 126 107,Active,Entity Name,50% ABN Accuracy
Religious Organisations,St Vincent De Paul Society,74 High St,Wodonga,VIC,3690,74 High St.Wodonga.VIC.3690,-36.1180362,146.890008,,wodonga.centre@svdp-vic.org.au,https://www.vinnies.org.au/,,,46 472 591 335,Active,Other Name,50% ABN Accuracy
Religious Organisations,Tear Australia,Unit 1/4 Solwood Lane,Blackburn,VIC,3130,Unit 1/4 Solwood Lane.Blackburn.VIC.3130,-37.8200069,145.1543494,,,,,,85 085 413 832,Active,Entity Name,50% ABN Accuracy
Religious Organisations,The Revival Fellowship,45 John Rice Ave,Elizabeth Vale,SA,5112,45 John Rice Ave.Elizabeth Vale.SA.5112,-34.7489037,138.6686955,,,,,,81 311 970 074,Active,Entity Name,50% ABN Accuracy
Religious Organisations,The Salvation Army,118 Burke St,Warragul,VIC,3820,118 Burke St.Warragul.VIC.3820,-38.1588351,145.919035,,,,,,94 917 169 560,Active,Trading Name,50% ABN Accuracy
Religious Organisations,Transformation Centre,107 Woods St,Newport,VIC,3015,107 Woods St.Newport.VIC.3015,-37.8455019,144.8717037,,,Visit Our Website,,,42 780 578 611,Active,Business Name,50% ABN Accuracy
Religious Organisations,Trumpet Call Ministries Inc.,46 Applewood Dr,Knoxfield,VIC,3180,46 Applewood Dr.Knoxfield.VIC.3180,-37.8775774,145.248861,,,,,,51 339 293 329,Active,Entity Name (Historic),50% ABN Accuracy
Religious Organisations,Westminster Presbyterian Church,72 Sutton St,Mandurah,WA,6210,72 Sutton St.Mandurah.WA.6210,-32.52702,115.72369,,tony@wpcmc.net,http://www.wpcmc.net,,,14 209 061 363,Active,Trading Name,50% ABN Accuracy
Religious Organisations,Youth With A Mission,1 Kent Rd,Surrey Hills,VIC,3127,1 Kent Rd.Surrey Hills.VIC.3127,-37.8275094,145.0902174,,,,,,63 932 277 049,Active,Entity Name,50% ABN Accuracy
Religious Organisations,Youthcare,1/ 103 Catherine St,Morley,WA,6943,1/ 103 Catherine St.Morley.WA.6943,-31.902272,115.900287,,info@youthcare.org.au,http://www.youthcare.org.au,,,70 172 899 396,Active,Trading Name,50% ABN Accuracy
Religious Organisations,Aboriginal Catholic Ministry,434 St Georges Rd,Thornbury,VIC,3071,434 St Georges Rd.Thornbury.VIC.3071,-37.7551138,144.9946824,,,,,,40 453 682 263,Cancelled,Entity Name,50% ABN Accuracy
Religious Organisations,Assemblies Of God In Australia,Princes Hwy,Mulgrave,VIC,3170,Princes Hwy.Mulgrave.VIC.3170,-37.9331882,145.156653,,,,,,95 979 076 984,Cancelled,Entity Name,50% ABN Accuracy
Religious Organisations,Christian Revival Crusade,118 Ballan Rd,Werribee,VIC,3030,118 Ballan Rd.Werribee.VIC.3030,-37.8952559,144.6368529,,,,,,52 435 364 755,Cancelled,Entity Name,50% ABN Accuracy
Religious Organisations,Rhema Family Church,1 Thorogood St,Burswood,WA,6100,1 Thorogood St.Burswood.WA.6100,-31.9664187,115.8936707,,,,,,52 045 956 558,Cancelled,Trading Name (Historic),50% ABN Accuracy
Religious Organisations,The Mission to Seafarers,7 The Esplanade,North Shore,VIC,3214,7 The Esplanade.North Shore.VIC.3214,-38.0997062,144.3691362,,,,,,57 351 654 755,Cancelled,Other Name (Historic),50% ABN Accuracy
Religious Organisations,The Mission To Seafarers,166 Dempster Strs,Esperance,WA,6450,166 Dempster Strs.Esperance.WA.6450,-33.869532,121.8904581,,seafarers@westnet.com.au,www.mts.org.au/esperance.html,,,57 351 654 755,Cancelled,Other Name (Historic),50% ABN Accuracy
Religious Organisations,All For Jesus Evangelistic Association Inc,13 Perkins Ave,Hoppers Crossing,VIC,3029,13 Perkins Ave.Hoppers Crossing.VIC.3029,-37.8671872,144.6913964,,,,,,71 794 384 101,Active,Entity Name (Historic),75% ABN Accuracy
Religious Organisations,Anglican Institute Of Theology Religious & Education,Hardy Rd,Nedlands,WA,6009,Hardy Rd.Nedlands.WA.6009,-31.9715089,115.8135299,,,,,,59 962 540 635,Active,Other Name,75% ABN Accuracy
Religious Organisations,Community Of Christ,2 - 4 Logan St St,Frankston,VIC,3199,2 - 4 Logan St St.Frankston.VIC.3199,-38.1458595,145.1433716,,,,,,87 586 411 904,Active,Entity Name,75% ABN Accuracy
Religious Organisations,Community Of Christ,241 Poath Rd,Hughesdale,VIC,3166,241 Poath Rd.Hughesdale.VIC.3166,-37.901046,145.0751167,,,,,,87 586 411 904,Active,Entity Name,75% ABN Accuracy
Religious Organisations,Concern Australia,215 Wellington St,Collingwood,VIC,3066,215 Wellington St.Collingwood.VIC.3066,-37.8011841,144.98681,,,,,,12 060 206 671,Active,Trading Name,75% ABN Accuracy
Religious Organisations,Connections UnitingCare,48 Blackburn Rd,Blackburn,VIC,3130,48 Blackburn Rd.Blackburn.VIC.3130,-37.8232012,145.1521131,,,,,,90 676 577 035,Active,Entity Name,75% ABN Accuracy
Religious Organisations,Eternity Aid,37 Graham Ct,Hoppers Crossing,VIC,3029,37 Graham Ct.Hoppers Crossing.VIC.3029,-37.8738249,144.7292471,,,,,,24 004 350 798,Active,Business Name (Historic),75% ABN Accuracy
Religious Organisations,Mighty Living Waters Life Fellowship,,Riverton,WA,6148,.Riverton.WA.6148,-32.0337878,115.8931707,,,,,,12 086 262 816,Active,Entity Name,75% ABN Accuracy
Religious Organisations,Prahran Mission,15 Cromwell Rd,South Yarra,VIC,3141,15 Cromwell Rd.South Yarra.VIC.3141,-37.8453599,144.9995029,,,http://www.prahranmission.org.au,,,77 812 307 472,Active,Entity Name,75% ABN Accuracy
Religious Organisations,Punch Bowl Bible Chapel,100 Punchbowl Rd,Punchbowl,TAS,7249,100 Punchbowl Rd.Punchbowl.TAS.7249,-41.4575797,147.1659863,,,,,,39 766 352 643,Active,Entity Name (Historic),75% ABN Accuracy
Religious Organisations,St Bartholomews House Inc,Unit 3/ 91 Patterson Dr,Middle Swan,WA,6056,Unit 3/ 91 Patterson Dr.Middle Swan.WA.6056,-31.8739595,116.0183683,,,,,,92 491 228 162,Active,Entity Name,75% ABN Accuracy
Religious Organisations,Word For The World Christian Fellowship,21 Honeyeater Crst,Taylors Lakes,VIC,3038,21 Honeyeater Crst.Taylors Lakes.VIC.3038,-37.6946198,144.7844877,,,,,,19 590 992 488,Active,Trading Name,75% ABN Accuracy
Religious Organisations,Abacus Christian Church,214 William St,Northbridge,WA,6003,214 William St.Northbridge.WA.6003,-31.9489558,115.8597143,,,,,,,,,
Religious Organisations,Aboriginal Catholic Ministry & Council,5 Baker Ave,Perth,WA,6000,5 Baker Ave.Perth.WA.6000,-31.9432237,115.8649072,,,,,,92 110 379 300,Active,Entity Name,99% ABN Accuracy
Religious Organisations,Aboriginal Evangelical Church Balga,16 Highclere Blv,Marangaroo,WA,6064,16 Highclere Blv.Marangaroo.WA.6064,-31.8327742,115.8379199,,,,,,,,,
Religious Organisations,Access Ministries,Level 5/ 695 Burke Rd,Camberwell,VIC,3124,Level 5/ 695 Burke Rd.Camberwell.VIC.3124,-37.8321817,145.0560992,,,,,,59 004 240 779,Active,Business Name,99% ABN Accuracy
Religious Organisations,Adelaide Revival Fellowship Incorporated,25 Belair Rd,Kingswood,SA,5062,25 Belair Rd.Kingswood.SA.5062,-34.967611,138.6092136,,vogue@adelaiderevival.com,http://www.adelaiderevival.com,,,95 058 625 152,Active,Entity Name,99% ABN Accuracy
Religious Organisations,Adelaide Theosophical Society Inc,310 South Tce,Adelaide,SA,5000,310 South Tce.Adelaide.SA.5000,-34.9348405,138.6115295,,,,,,76 487 580 644,Active,Entity Name,99% ABN Accuracy
Religious Organisations,All Saints' Parish of Newtown & Geelong West,113 Nobel St,Newtown,VIC,3220,113 Nobel St.Newtown.VIC.3220,-38.1536281,144.3397553,,office@allsaints.net,http://www.allsaintsnewtown.com,,,,,,
Religious Organisations,Amazing Discoveries Australia,1st Floor Suite 6 30- 32 Ellingworth Parade,Box Hill,VIC,3128,1st Floor Suite 6 30- 32 Ellingworth Parade.Box Hill.VIC.3128,-37.8208563,145.1259313,,,,,,,,,
Religious Organisations,Ambassadors Of Jesus Christian Assemblies,?Embassy? 25 Wheeler Vic,Corryong,VIC,3707,?Embassy? 25 Wheeler Vic.Corryong.VIC.3707,-36.1965306,147.9066468,,,,,,,,,
Religious Organisations,Anglican Community Of The Holy Name,40 Cavanagh St,Cheltenham,VIC,3192,40 Cavanagh St.Cheltenham.VIC.3192,-37.9614637,145.0658919,,,,,,,,,
Religious Organisations,Anglican Parish Of The Bellarine,11-15 Brown St,Portarlington,VIC,3223,11-15 Brown St.Portarlington.VIC.3223,-38.1166488,144.6540282,,,http://www.bellarineparish.org/,,,,,,
Religious Organisations,Apostolic Campsite Busselton,189 Caves Rd,Busselton,WA,6280,189 Caves Rd.Busselton.WA.6280,-33.6585754,115.2384416,,,,,,,,,
Religious Organisations,Ashburton Presbyterian Church,1 High St,Ashburton,VIC,3147,1 High St.Ashburton.VIC.3147,-37.8603798,145.0637899,,broakes@optusnet.com.au,,,,52 417 600 813,Active,Entity Name,99% ABN Accuracy
Religious Organisations,Australian Baptist Missionary Society Inc,597 Burwood Rd,Hawthorn,VIC,3122,597 Burwood Rd.Hawthorn.VIC.3122,-37.8232504,145.0439544,,,,,,74 130 443 130,Active,Entity Name (Historic),99% ABN Accuracy
Religious Organisations,Australian Burmabuddhist Association In Western Australia Inc,92 Girrawheen Ave,Girrawheen,WA,6064,92 Girrawheen Ave.Girrawheen.WA.6064,-31.8401225,115.8407389,,,,,,,,,
Religious Organisations,Australian Christian Student Movement Pty Ltd,180 Palmerston St,Carlton,VIC,3053,180 Palmerston St.Carlton.VIC.3053,-37.795895,144.968803,,,,,,,,,
Religious Organisations,Australian Jesuit Foundation,326 Church St,Richmond,VIC,3121,326 Church St.Richmond.VIC.3121,-37.8218538,144.9979319,,,,,,24 107 869 652,Active,Entity Name,99% ABN Accuracy
Religious Organisations,Baha 'i Faith,,suppressed,suppressed,,.suppressed.suppressed.,,,,,,,,,,,
Religious Organisations,Baha'i Centre of Learning South Australia,275 Flinders St,Adelaide,SA,5000,275 Flinders St.Adelaide.SA.5000,-34.9267847,138.61067,,,,,,,,,
Religious Organisations,Bahai Faith,635 Sawpit Rd,Hindmarsh Valley,SA,5211,635 Sawpit Rd.Hindmarsh Valley.SA.5211,-35.4687171,138.582633,,annemieka9@adam.com.au,http://www.bahai.org.au,,,,,,
Religious Organisations,Baha'i Faith,20 Param St,Grovedale,VIC,3216,20 Param St.Grovedale.VIC.3216,-38.1945876,144.3351441,,,,,,,,,
Religious Organisations,Baha'i Faith,1 Tasman Hwy,Hobart,TAS,7000,1 Tasman Hwy.Hobart.TAS.7000,-42.87836,147.3336028,,,,,,,,,
Religious Organisations,Baha'I Faith,Old Paradise Rd,Sheffield,TAS,7306,Old Paradise Rd.Sheffield.TAS.7306,-41.4094732,146.3372719,,,,,,,,,
Religious Organisations,Baha'i Faith,,Springvale,VIC,3171,.Springvale.VIC.3171,-37.9473307,145.1541397,,,,,,,,,
Religious Organisations,Baha'i Faith,,suppressed,suppressed,,.suppressed.suppressed.,,,,,,,,,,,
Religious Organisations,Baha'i Faith,,suppressed,suppressed,,.suppressed.suppressed.,,,,,,,,,,,
Religious Organisations,Baha'i Faith,453 Marmion St,Myaree,WA,6154,453 Marmion St.Myaree.WA.6154,-32.0401732,115.8153206,,,,,,,,,
Religious Organisations,Baha'i Faith,17 Coral St,South Bunbury,WA,6230,17 Coral St.South Bunbury.WA.6230,-33.3589271,115.6379039,,,,,,,,,
Religious Organisations,Baha'i Faith (South Australia),,Munno Para,SA,5115,.Munno Para.SA.5115,-34.6684704,138.6969036,,,,,,,,,
Religious Organisations,Baha'i National Office,,suppressed,suppressed,,.suppressed.suppressed.,,,,,,,,,,,
Religious Organisations,Balya Retreat,130 Mayo Rd,Gidgegannup,WA,6083,130 Mayo Rd.Gidgegannup.WA.6083,-31.77826,116.252707,,,,,,,,,
Religious Organisations,Bayview Church,1 Inglewood Crst,Rosebud,VIC,3939,1 Inglewood Crst.Rosebud.VIC.3939,-38.373735,144.907972,,info@bayviewchurch.org,www.bayviewchurch.org/,,,,,,
Religious Organisations,Bellarine Assembly (RCI),131 Helms St,Newcomb,VIC,3219,131 Helms St.Newcomb.VIC.3219,-38.1717391,144.3991901,,,,,,,,,
Religious Organisations,Bellarine Assembly (RCI),137 Helms St,Newcomb,VIC,3219,137 Helms St.Newcomb.VIC.3219,-38.1723329,144.3989583,,,,,,,,,
Religious Organisations,Benwerren,30 Benwerren Dr,Yarra Junction,VIC,3797,30 Benwerren Dr.Yarra Junction.VIC.3797,-37.7799404,145.6273115,,,,,,72 005 946 789,Active,Entity Name,99% ABN Accuracy
Religious Organisations,Beth Shean Inc,1636 Railton Rd,Mersey Lea,TAS,7305,1636 Railton Rd.Mersey Lea.TAS.7305,-41.3640415,146.4656955,,,,,,,,,
Religious Organisations,Bible Baptist Church & Christian Academy,Chidlow St,Mt Helena,WA,6082,Chidlow St.Mt Helena.WA.6082,-31.8729802,116.2151821,,,,,,55 077 253 476,Cancelled,Trading Name (Historic),99% ABN Accuracy
Religious Organisations,Bible Society The,19 Arabrie Ave,Edwardstown,SA,5039,19 Arabrie Ave.Edwardstown.SA.5039,-34.9897512,138.5707546,,,http://www.biblesociety.org.au/,,,,,,
Religious Organisations,Bible-Line,Spencer Ave,Yokine,WA,6060,Spencer Ave.Yokine.WA.6060,-31.9035851,115.8625307,,,,,,,,,
Religious Organisations,Big House Communities,255 Outlook Dr,Dandenong North,VIC,3175,255 Outlook Dr.Dandenong North.VIC.3175,-37.9398721,145.2111196,,,,,,72 271 634 868,Active,Trading Name,99% ABN Accuracy
Religious Organisations,Brighton Hebrew Congregation,132- 136 Marriage Rd,Brighton East,VIC,3187,132- 136 Marriage Rd.Brighton East.VIC.3187,-37.9202989,145.0209636,,,,,,77 565 365 288,Active,Trading Name,99% ABN Accuracy
Religious Organisations,Buddhist Discussion Centre (Upwey) Ltd,33 Brooking St,Upwey,VIC,3158,33 Brooking St.Upwey.VIC.3158,-37.914793,145.3348931,,wbu@bdcu.org.au,www.bdcu.org.au,,1980,,,,
Religious Organisations,Buddhist Meditation Association of Vic Inc,43 Hemming St,Dandenong,VIC,3175,43 Hemming St.Dandenong.VIC.3175,-37.9834311,145.2061145,,,,,,,,,
Religious Organisations,Buddhist Temple Wat Ratanaprathib Vihara,45 Smith St,Thebarton,SA,5031,45 Smith St.Thebarton.SA.5031,-34.9161886,138.5732095,,,,,,,,,
Religious Organisations,Buddhist Vihara Daham Niketanaya,1690 Mickelham Rd,Yuroke,VIC,3063,1690 Mickelham Rd.Yuroke.VIC.3063,-37.5770479,144.875666,,,,,,,,,
Religious Organisations,Budhist Centre (Tibetan Kagyu),13-15 Bryan St,Invermay,TAS,7248,13-15 Bryan St.Invermay.TAS.7248,-41.4207586,147.1371238,,,,,,,,,
Religious Organisations,C3 Church Scarborough,"Preston Room, Hotel Rendezvous",Scarborough,WA,6019,"Preston Room, Hotel Rendezvous.Scarborough.WA.6019",-31.8934726,115.7565917,,,,,,,,,
Religious Organisations,Campus Crusade For Christ Australia,1/ 8 Anzed Ct,Mulgrave,VIC,3170,1/ 8 Anzed Ct.Mulgrave.VIC.3170,-37.92046,145.149777,,info@ccca.org.au,www.ccca.org.au,,,25 126 098 398,Active,Trading Name,99% ABN Accuracy
Religious Organisations,Careforce Ministries Training School,89 Monbulk Rd,Mt Evelyn,VIC,3796,89 Monbulk Rd.Mt Evelyn.VIC.3796,-37.7975734,145.3947385,,,,,,12 072 679 067,Cancelled,Entity Name (Historic),99% ABN Accuracy
Religious Organisations,Catholic Diocesan Office,5 Lyons St South,Ballarat,VIC,3350,5 Lyons St South.Ballarat.VIC.3350,-37.5625075,143.8521214,,,,,,,,,
Religious Organisations,Catholic Diocesan Youth Ministry,,Broome,WA,6725,.Broome.WA.6725,-17.96182,122.236998,,,,,,,,,
Religious Organisations,Catholic Historical Commission,383 Albert St,East Melbourne,VIC,3002,383 Albert St.East Melbourne.VIC.3002,-37.8100705,144.9776771,,,,,,,,,
Religious Organisations,Catholic Parish House,,Jurien Bay,WA,6516,.Jurien Bay.WA.6516,-30.3067032,115.0373581,,,,,,,,,
Religious Organisations,Catholic Traditional,40 Ludstone St,Hampton,VIC,3188,40 Ludstone St.Hampton.VIC.3188,-37.933755,145.00825,,,,,,,,,
Religious Organisations,Centacare Kimberley,,Broome,WA,6725,.Broome.WA.6725,-17.96182,122.236998,,,,,,86 990 067 369,Active,Entity Name (Historic),99% ABN Accuracy
Religious Organisations,Ch'an Academy,33 Brooking St,Upwey,VIC,3158,33 Brooking St.Upwey.VIC.3158,-37.914793,145.3348931,,,,,,42 611 496 488,Active,Other Name,99% ABN Accuracy
Religious Organisations,Chinese Christian Church Of Victoria Inc.,Cnr Orrong and Wynnstay Rds,Armadale,VIC,3143,Cnr Orrong and Wynnstay Rds.Armadale.VIC.3143,-37.8529643,145.0117741,,,,,,,,,
Religious Organisations,Christadelphian Answering Service,52 Alpine Way,Kilsyth,VIC,3137,52 Alpine Way.Kilsyth.VIC.3137,-37.8041092,145.3329055,,,,,,,,,
Religious Organisations,Christadelphian Diamond Valley Bible Centre,230 Mine Rd,Nutfield,VIC,3099,230 Mine Rd.Nutfield.VIC.3099,-37.6006526,145.2044103,,,,,,,,,
Religious Organisations,Christadelphian Ecclesia Hall,59 Raeburn Rd,Breadalbane,TAS,7258,59 Raeburn Rd.Breadalbane.TAS.7258,-41.5305412,147.197062,,,,,,,,,
Religious Organisations,Christian Brethren Assemblies,127-133 Garnett Rd,Wheelers Hill,VIC,3150,127-133 Garnett Rd.Wheelers Hill.VIC.3150,-37.9210258,145.1992232,,,,,,,,,
Religious Organisations,Christian Brethren Assemblies,20 Fellows St,Kew,VIC,3101,20 Fellows St.Kew.VIC.3101,-37.7997134,145.0279362,,,,,,,,,
Religious Organisations,Christian Brethren Family Care Opportunity Shop,116 Railway Ave,Ringwood East,VIC,3135,116 Railway Ave.Ringwood East.VIC.3135,-37.8115165,145.2526126,,,,,,,,,
Religious Organisations,Christian City Church Whitehorse,27 Bank St,Box Hill,VIC,3128,27 Bank St.Box Hill.VIC.3128,-37.8195441,145.1267632,,,,,,,,,
Religious Organisations,Christian Dance Fellowship Tasmanian Branch,75 Alomes Rd,Forcett,TAS,7173,75 Alomes Rd.Forcett.TAS.7173,-42.8268702,147.6279449,,,,,,,,,
Religious Organisations,Christian Life Ministries Church in Perth,173 Gildertriffe St,Scarborough,WA,6019,173 Gildertriffe St.Scarborough.WA.6019,-31.8952276,115.7744382,,robert.whately@gmail.com,www.christianlifeministries.com.au,,,,,,
Religious Organisations,Christian Orthodox Brotherhood of Apostle Paul Corp,99 Buckley St,Footscray,VIC,3011,99 Buckley St.Footscray.VIC.3011,-37.8037164,144.8938498,,,,,,,,,
Religious Organisations,Christian Youth Camps Of S.A. Inc.,,Wellington,SA,5259,.Wellington.SA.5259,-35.3318073,139.3821999,,,,,,86 857 437 624,Active,Entity Name,99% ABN Accuracy
Religious Organisations,Churchwest Kalgoorlie,46 Hannan St,Kalgoorlie,WA,6430,46 Hannan St.Kalgoorlie.WA.6430,-30.7435116,121.4762117,,,http://www.churchwest.org,,,,,,
Religious Organisations,City On A Hill: Geelong,370 Moorabool St,South Geelong,VIC,3220,370 Moorabool St.South Geelong.VIC.3220,-38.1579601,144.3545725,,info@cityonahill.com.au,http://cityonahill.com.au,,,,,,
Religious Organisations,City on a Hill: West,Hoyts Highpoint/ 120-200 Rosamond Rd,Maribyrnong,VIC,3032,Hoyts Highpoint/ 120-200 Rosamond Rd.Maribyrnong.VIC.3032,-37.7740565,144.8888811,,info@cityonahill.com.au,http://www.cityonahill.com.au,,,,,,
Religious Organisations,CityLight Church,Wetlands Education Centre 184 Hope Rd,Bibra Lake,WA,6163,Wetlands Education Centre 184 Hope Rd.Bibra Lake.WA.6163,-32.086263,115.8307567,,info@citylightchurch.net.au,www.citylightchurch.net.au,,,55 009 562 430,Active,Entity Name,99% ABN Accuracy
Religious Organisations,Company Of Sinners Inc.,23 Keith Rd,Blackwood,SA,5051,23 Keith Rd.Blackwood.SA.5051,-35.0255695,138.6228743,,,,,,38 704 573 873,Active,Entity Name,99% ABN Accuracy
Religious Organisations,Covenant Baptist Church (Reformed),Cnr Fourth Ave and Central Rd,Rossmoyne,WA,6148,Cnr Fourth Ave and Central Rd.Rossmoyne.WA.6148,-32.0385949,115.8677088,,,,,,,,,
Religious Organisations,Crossroads Victoria Christian Fellowship With Disabled Persons,Suite 1 587 Canterbury Rd,Surrey Hills,VIC,3127,Suite 1 587 Canterbury Rd.Surrey Hills.VIC.3127,-37.8254882,145.0950433,,,,,,,,,
Religious Organisations,CWG Mission 1,,Kelmscott,WA,6111,.Kelmscott.WA.6111,-32.1144464,116.0149215,,,,,,,,,
Religious Organisations,David House Fellowship Inc.,908 North Rd,Bentleigh East,VIC,3165,908 North Rd.Bentleigh East.VIC.3165,-37.906875,145.061249,,,,,,65 043 285 064,Active,Entity Name,99% ABN Accuracy
Religious Organisations,Dhammagiri Forest Hermitage,,suppressed,suppressed,,.suppressed.suppressed.,,,,,,,,,,,
Religious Organisations,Diggerland Church Inc.,26 Indi Ave,Red Cliffs,VIC,3496,26 Indi Ave.Red Cliffs.VIC.3496,-34.3070459,142.187691,,,,,,38 710 394 652,Active,Entity Name,99% ABN Accuracy
Religious Organisations,Doreen Baptist Church,25 Hazelglen Dr,Doreen,VIC,3754,25 Hazelglen Dr.Doreen.VIC.3754,-37.5885515,145.1367643,,pastor@doreenbaptist.org.au,http://www.doreenbaptist.org.au,,,40 853 576 644,Active,Entity Name,99% ABN Accuracy
Religious Organisations,Elizabeth Revival Centre,45 John Rice Ave,Elizabeth Vale,SA,5112,45 John Rice Ave.Elizabeth Vale.SA.5112,-34.7489037,138.6686955,,,,,,,,,
Religious Organisations,Faith Baptist Church,Primary School Hall Anglesea St,South Hobart,TAS,7004,Primary School Hall Anglesea St.South Hobart.TAS.7004,-42.8940338,147.311269,,,,,,26 486 858 083,Active,Trading Name,99% ABN Accuracy
Religious Organisations,Followers of Christ,,Karingal,VIC,3199,.Karingal.VIC.3199,-38.1421518,145.1581699,,,,,,,,,
Religious Organisations,Franciscan Sisters Of The Heart Of Jesus (SOHOJIC),2 Franciscan Ave,Lockleys,SA,5032,2 Franciscan Ave.Lockleys.SA.5032,-34.9238846,138.5267336,,,,,,,,,
Religious Organisations,Free Presbyterian Church Of Western Australia,5 Thistle Gr,Currambine,WA,6028,5 Thistle Gr.Currambine.WA.6028,-31.730446,115.7421024,,,,,,,,,
Religious Organisations,Freedom Church Warrnambool (ACC),141B Koroit St,Warrnambool,VIC,3280,141B Koroit St.Warrnambool.VIC.3280,-38.3836899,142.483245,,info@freedomchurch3280.com.au,http://www.freedomchurch3280.com.au,,,,,,
Religious Organisations,Fresh Christian Fellowship,90A Flores Rd,Geraldton,WA,6530,90A Flores Rd.Geraldton.WA.6530,-28.7543156,114.6305634,,freshchristianfellowship@gmail.com,,,,32 369 796 505,Cancelled,Entity Name,99% ABN Accuracy
Religious Organisations,Friends Religious Society Of,Shop 12/ 210 Toorak Rd,South Yarra,VIC,3141,Shop 12/ 210 Toorak Rd.South Yarra.VIC.3141,-37.8396973,144.9943026,,vicclerk@quakers.org.au,http://www.vic.quakers.org.au,,,,,,
Religious Organisations,Fusion Australian (WA) Inc,92 Marine Tce,Geraldton,WA,6530,92 Marine Tce.Geraldton.WA.6530,-28.7726632,114.609864,,,,,,,,,
Religious Organisations,Geneva Fellowship Inc.,197 Moriarty Rd,Latrobe,TAS,7307,197 Moriarty Rd.Latrobe.TAS.7307,-41.2269791,146.4391536,,,,,,99 742 773 710,Active,Entity Name,99% ABN Accuracy
Religious Organisations,GFS Anglican Ministry,240 Adelaide Tce,Perth,WA,6000,240 Adelaide Tce.Perth.WA.6000,-31.9579634,115.8669173,,,,,,,,,
Religious Organisations,Gideons International In Australia,,suppressed,suppressed,,.suppressed.suppressed.,,,,,,,,,,,
Religious Organisations,GLO Training Centre,20 King St,Smithton,TAS,7330,20 King St.Smithton.TAS.7330,-40.8394183,145.1251285,,,,,,,,,
Religious Organisations,God Squad Christian Motorcycle Club,215 Wellington St,Collingwood,VIC,3066,215 Wellington St.Collingwood.VIC.3066,-37.8011841,144.98681,,,,,,,,,
Religious Organisations,God's Farm,94 Woodlands Rd,Wilyabrup,WA,6280,94 Woodlands Rd.Wilyabrup.WA.6280,-33.7844047,115.0233052,,,,,,,,,
Religious Organisations,Good Shepherd Centre for Justice & Fair Trade,261 Victoria St,Abbotsford,VIC,3067,261 Victoria St.Abbotsford.VIC.3067,-37.8095929,144.993047,,,,,,,,,
Religious Organisations,Good Shepherd Sisters,,St Kilda,VIC,3182,.St Kilda.VIC.3182,-37.864,144.982,,,,,,,,,
Religious Organisations,Gospel Across the World,1st Floor Suite 6 30- 32 Ellingworth Parade,Box Hill,VIC,3128,1st Floor Suite 6 30- 32 Ellingworth Parade.Box Hill.VIC.3128,-37.8208563,145.1259313,,,,,,,,,
Religious Organisations,GreaterLife Church,4/ 347-349 Old Geelong Rd,Hoppers Crossing,VIC,3029,4/ 347-349 Old Geelong Rd.Hoppers Crossing.VIC.3029,-37.871642,144.7238705,,admin@greaterlife.com.au,http://www.greaterlife.com.au,,,,,,
Religious Organisations,Greek Orthodox Archdiocese Of Australia (Queenstown),2 West St,Queenstown,SA,5014,2 West St.Queenstown.SA.5014,-34.8599711,138.5068262,,,,,,,,,
Religious Organisations,Greek Orthodox Community Of Melbourne & Victoria,64 St David St,Thornbury,VIC,3071,64 St David St.Thornbury.VIC.3071,-37.7617639,145.0060023,,,,,,,,,
Religious Organisations,Greek Orthodox Community Of Melbourne & Victoria,Old Heidelberg Rd,Alphington,VIC,3078,Old Heidelberg Rd.Alphington.VIC.3078,-37.7801038,145.035557,,,,,,,,,
Religious Organisations,Greek Orthodox Community Of Melbourne & Victoria,380 High St,Prahran,VIC,3181,380 High St.Prahran.VIC.3181,-37.8529858,145.0004439,,,,,,,,,
Religious Organisations,Greek Orthodox Community Of Melbourne & Victoria,186 Victoria Parade,East Melbourne,VIC,3002,186 Victoria Parade.East Melbourne.VIC.3002,-37.8088442,144.9781607,,,,,,,,,
Religious Organisations,Greek Orthodox Community Of Melbourne & Victoria,2 Leeds St,Footscray,VIC,3011,2 Leeds St.Footscray.VIC.3011,-37.7974318,144.9010827,,,,,,,,,
Religious Organisations,Greek Orthodox Community Of Melbourne & Victoria,168 Lonsdale St,Melbourne,VIC,3000,168 Lonsdale St.Melbourne.VIC.3000,-37.810578,144.9673792,,info@greekcommunity.com.au,,,,,,,
Religious Organisations,Healesville Uniting Church,286 Maroondah Hwy,Healesville,VIC,3777,286 Maroondah Hwy.Healesville.VIC.3777,-37.6538805,145.517995,,jenniewren62@gmail.com,http://healesville.unitingchurch.org.au/,,,99 739 326 576,Active,Trading Name,99% ABN Accuracy
Religious Organisations,Heathmont Interchurch Help Incorporated,136 Canterbury Rd,Heathmont,VIC,3135,136 Canterbury Rd.Heathmont.VIC.3135,-37.8282557,145.2468628,,,,,,,,,
Religious Organisations,Helping Hand Centre Inc,792-806 Heatherton Rd,Springvale,VIC,3171,792-806 Heatherton Rd.Springvale.VIC.3171,-37.9615929,145.1430156,,,,,,,,,
Religious Organisations,Holy Trinity Church,,suppressed,suppressed,,.suppressed.suppressed.,,,,,,,,,,,
Religious Organisations,Hor-Kwong C,,suppressed,suppressed,,.suppressed.suppressed.,,,,,,,,,,,
Religious Organisations,ICCR,,suppressed,suppressed,,.suppressed.suppressed.,,,,,,,,,,,
Religious Organisations,Insight For Living Inc,7/ 9 Jersey Rd,Bayswater,VIC,3153,7/ 9 Jersey Rd.Bayswater.VIC.3153,-37.8402714,145.2800421,,,,,,57 813 130 585,Active,Entity Name,99% ABN Accuracy
Religious Organisations,Institute Of Religious Women,242 Hutt St,Adelaide,SA,5000,242 Hutt St.Adelaide.SA.5000,-34.9339491,138.6127655,,,,,,,,,
Religious Organisations,Interserve Australia Inc,Suites 17 18 653 Mountain Hwy,Bayswater,VIC,3153,Suites 17 18 653 Mountain Hwy.Bayswater.VIC.3153,-37.8416103,145.2610408,,,,,,12 041 298 204,Active,Entity Name,99% ABN Accuracy
Religious Organisations,Islamic Co-Ordinating Hallal Board,155 Lygon St,Brunswick East,VIC,3057,155 Lygon St.Brunswick East.VIC.3057,-37.7732882,144.9710576,,,,,,,,,
Religious Organisations,Islamic Information & Support Centre of Australia (IISCA),31 Edward St,Brunswick,VIC,3056,31 Edward St.Brunswick.VIC.3056,-37.7737195,144.9623236,,info@iisca.org,,,,,,,
Religious Organisations,Islamic Society Of Victoria,90 Cramer St,Preston,VIC,3072,90 Cramer St.Preston.VIC.3072,-37.7390496,144.9931546,,,,,,79 036 396 525,Active,Entity Name,99% ABN Accuracy
Religious Organisations,Islamic Trust of Victoria,201 Sayers Rd,Laverton,VIC,3028,201 Sayers Rd.Laverton.VIC.3028,-37.8525971,144.7219401,,,,,,,,,
Religious Organisations,Jehovah's Witnesses-Kingdom Halls,,Ridgehaven,SA,5097,.Ridgehaven.SA.5097,-34.825444,138.69561,,,,,,,,,
Religious Organisations,Jesus Is The Way Spanish Church,210 Nicholson St,Footscray,VIC,3011,210 Nicholson St.Footscray.VIC.3011,-37.80302,144.898769,,,,,,,,,
Religious Organisations,Jewish Synagogue,59 Argyle St,Hobart,TAS,7000,59 Argyle St.Hobart.TAS.7000,-42.879577,147.3280012,,,,,,,,,
Religious Organisations,Joy Christian Church,14 Station Rd,St Leonards,TAS,7250,14 Station Rd.St Leonards.TAS.7250,-41.4590716,147.1991716,,,,,,64 478 510 572,Active,Entity Name,99% ABN Accuracy
Religious Organisations,Jurien Bay Community Church Non Denominational,,Cervantes,WA,6511,.Cervantes.WA.6511,-30.5017292,115.0762536,,,,,,,,,
Religious Organisations,Kardinia Christian Church,1- 11 Kardinia Dr,Bell Post Hill,VIC,3215,1- 11 Kardinia Dr.Bell Post Hill.VIC.3215,-38.114263,144.3302344,,,www.kardiniachurch.com/home,,,,,,
Religious Organisations,Kardinia Church Warrnambool,35 Hoddle St,Warrnambool,VIC,3280,35 Hoddle St.Warrnambool.VIC.3280,-38.3663285,142.4661585,,sandro.schietroma@kardiniachurch.com,,,,,,,
Religious Organisations,Kimberley Evangelisers Of Youth,,Broome,WA,6725,.Broome.WA.6725,-17.96182,122.236998,,,,,,,,,
Religious Organisations,Kingston SE New Life Centre Inc.,33 James St,Kingston Se,SA,5275,33 James St.Kingston Se.SA.5275,-36.8281034,139.8554227,,kingstonse.nlc@bigpond.com,,,,45 464 073 996,Active,Entity Name,99% ABN Accuracy
Religious Organisations,Kuitpo Community,Kuitpo Community Admnstrn and Rehabilitation,Hope Forest,SA,5172,Kuitpo Community Admnstrn and Rehabilitation.Hope Forest.SA.5172,-35.2795209,138.6212558,,,,,,,,,
Religious Organisations,Leongatha Seventh-day Adventist Church,5 Hassett St,Leongatha,VIC,3953,5 Hassett St.Leongatha.VIC.3953,-38.4752106,145.950584,,krisandgrae@hotmail.com,http://leongatha.adventist.org.au/,,,,,,
Religious Organisations,Liber8 Church,3 Jamieson St,Warrnambool,VIC,3280,3 Jamieson St.Warrnambool.VIC.3280,-38.3772902,142.482727,,info@liber8.org.au,liber8.org.au,,1994,,,,
Religious Organisations,Liberty Life Church,121 Morphett Rd,Camden Park,SA,5038,121 Morphett Rd.Camden Park.SA.5038,-34.961393,138.5369343,,info@libertylife.com.au,www.libertylife.com.au,,,83 008 192 014,Active,Business Name,99% ABN Accuracy
Religious Organisations,Life in the Word and Better Education,1st Floor Suite 6 30- 32 Ellingworth Parade,Box Hill,VIC,3128,1st Floor Suite 6 30- 32 Ellingworth Parade.Box Hill.VIC.3128,-37.8208563,145.1259313,,,,,,,,,
Religious Organisations,LifeWorks Relationship Counselling and Education Services,648 High St,Reservoir,VIC,3073,648 High St.Reservoir.VIC.3073,-37.7299448,145.005701,,,,,,50 071 373 950,Active,Entity Name,99% ABN Accuracy
Religious Organisations,LifeWorks Relationship Counselling and Education Services,5 Everage St,Moonee Ponds,VIC,3039,5 Everage St.Moonee Ponds.VIC.3039,-37.7658162,144.9219058,,lifeworks@lifeworks.com.au,http://www.lifeworks.com.au,,,50 071 373 950,Active,Entity Name,99% ABN Accuracy
Religious Organisations,Lingsu (Aus),499 South Rd,Ashford,SA,5035,499 South Rd.Ashford.SA.5035,-34.9467575,138.5718451,,,,,,,,,
Religious Organisations,Loyal Order of the Moorabbit,,Mabins Well,VIC,2716,.Mabins Well.VIC.2716,-34.922211,145.5389444,,,,,,,,,
Religious Organisations,Lutheran Church Community Care,309 Prospect Rd,Prospect,SA,5082,309 Prospect Rd.Prospect.SA.5082,-34.8673737,138.5930439,,,http://www.lccsa.org.au,,,,,,
Religious Organisations,Mahmood Mosque,6 - 8 Toogood Ave,Beverley,SA,5009,6 - 8 Toogood Ave.Beverley.SA.5009,-34.8978608,138.5442813,,,,,,,,,
Religious Organisations,Manoah-Christian Senior Citizens Homes,86 Mills Rd,Martin,WA,6110,86 Mills Rd.Martin.WA.6110,-32.0801016,116.0226862,,,,,,,,,
Religious Organisations,Melbourne Pastors Network,7 Rimmer St,Mentone,VIC,3194,7 Rimmer St.Mentone.VIC.3194,-37.9752131,145.0595234,,,,,,,,,
Religious Organisations,Methodist Trinity Church,157 Kidds Rd,Doveton,VIC,3177,157 Kidds Rd.Doveton.VIC.3177,-37.9875334,145.2354296,,,tmc.cmca.ws,,,,,,
Religious Organisations,Mikveh Chaya Mousske Schneerson,38 Empress Rd,St Kilda East,VIC,3183,38 Empress Rd.St Kilda East.VIC.3183,-37.867862,145.0017077,,,,,,,,,
Religious Organisations,Millennium Christian Life Centre The,78 Atherton Rd,Oakleigh,VIC,3166,78 Atherton Rd.Oakleigh.VIC.3166,-37.8993898,145.0935136,,,,,,,,,
Religious Organisations,Millennium Life Charity Organisation,229 New St,Brighton,VIC,3186,229 New St.Brighton.VIC.3186,-37.9124586,144.9913545,,,,,2000,,,,
Religious Organisations,Moral Re Armament,,suppressed,suppressed,,.suppressed.suppressed.,,,,,www.au.iofc.com,,,,,,
Religious Organisations,Moral Rearmament,226 Kooyong Rd,Toorak,VIC,3142,226 Kooyong Rd.Toorak.VIC.3142,-37.840517,145.023803,,,,,,,,,
Religious Organisations,Morley Worship Centre,328 Walter Rd,Morley,WA,6062,328 Walter Rd.Morley.WA.6062,-31.8950401,115.9056642,,,,,,,,,
Religious Organisations,Native Valley Bible Fellowship,,Nairne,SA,5252,.Nairne.SA.5252,-35.036328,138.9126371,,,,,,75 665 516 239,Active,Entity Name,99% ABN Accuracy
Religious Organisations,Ninga Mia Fellowship,Ninga Mia Village,Kalgoorlie,WA,6430,Ninga Mia Village.Kalgoorlie.WA.6430,-30.7315796,121.4920321,,,,,,,,,
Religious Organisations,OAC Ministries (Aust) Ltd,Unit 2/ 9-11 Highview Dr,Doncaster,VIC,3108,Unit 2/ 9-11 Highview Dr.Doncaster.VIC.3108,-37.7928507,145.1314576,,,,,,,,,
Religious Organisations,"Office Of Justice,Ecology & Peace",,Broome,WA,6725,.Broome.WA.6725,-17.96182,122.236998,,,,,,,,,
Religious Organisations,Oracle Ministry,16 Martin St,Thornbury,VIC,3071,16 Martin St.Thornbury.VIC.3071,-37.7611764,145.0016105,,minister@oracleministry.com,http://www.oracleministry.com,,,,,,
Religious Organisations,Order Of St Luke The Physician (Australasia),112 100 Harold St,Wantirna,VIC,3152,112 100 Harold St.Wantirna.VIC.3152,-37.853066,145.2276675,,natsec@osl.org.au,Visit Us,,,,,,
Religious Organisations,Order Of The Cross (melb Group) The,42 Terrara Rd,Vermont,VIC,3133,42 Terrara Rd.Vermont.VIC.3133,-37.8415395,145.1898667,,,,,,,,,
Religious Organisations,Origins Centre The,Jayes Rd,Balingup,WA,6253,Jayes Rd.Balingup.WA.6253,-33.7797198,116.0197058,,origins@iinet.com.au,http://origins.mysouthwest.com.au,,,,,,
Religious Organisations,Our Lady's Parish Church Craigieburn,171 Craigieburn Rd,Craigieburn,VIC,3064,171 Craigieburn Rd.Craigieburn.VIC.3064,-37.5984792,144.931031,,info@ourladys.org,http://www.our-ladys.org,,1985,,,,
Religious Organisations,Perth Bible College (Inc),1 College Ct,Karrinyup,WA,6018,1 College Ct.Karrinyup.WA.6018,-31.8733785,115.7668804,,college@pbc.wa.edu.au,http://http://www.pbc.wa.edu.au,,,52 599 089 532,Active,Entity Name,99% ABN Accuracy
Religious Organisations,Planetshakers Church,40 Lakeside Bvd,Pakenham,VIC,3810,40 Lakeside Bvd.Pakenham.VIC.3810,-38.0655804,145.4529561,,southeast@planetshakers.com,www.planetshakers.com/australia/southeast,,,,,,
Religious Organisations,Planetshakers Church,360 Main Rd,Lower Plenty,VIC,3093,360 Main Rd.Lower Plenty.VIC.3093,-37.7302994,145.1278408,,web@planetshakers.com,www2.planetshakers.com/australia/northeast,,,,,,
Religious Organisations,Pontian Brotherhood Of SA Incorporated,674 Torrens Rd,Pennington,SA,5013,674 Torrens Rd.Pennington.SA.5013,-34.8629417,138.5286095,,,,,,,,,
Religious Organisations,Poor Clare Monastery,18-20 Edwards Rd,Kennington,VIC,3550,18-20 Edwards Rd.Kennington.VIC.3550,-36.7680811,144.3057445,,,,,,,,,
Religious Organisations,Post Disaster Ministry,212 Pirie St,Adelaide,SA,5000,212 Pirie St.Adelaide.SA.5000,-34.9251189,138.6076449,,,,,,,,,
Religious Organisations,Potters House Christian Church Geelong,23 Elizabeth St,Geelong West,VIC,3218,23 Elizabeth St.Geelong West.VIC.3218,-38.1399635,144.3397553,,grplum@gmail.com,http://www.geelongchurch.com,,,,,,
Religious Organisations,Potters House Christian Fellowship Dandenong,Lvl 1/ 1-7 Langhorne St,Dandenong,VIC,3175,Lvl 1/ 1-7 Langhorne St.Dandenong.VIC.3175,-37.986723,145.2147225,,,,,,,,,
Religious Organisations,Prayer Room,92 Gascoyne Way,Cooloongup,WA,6168,92 Gascoyne Way.Cooloongup.WA.6168,-32.3050958,115.7663257,,,,,,,,,
Religious Organisations,Presbyterian Youth Victoria,268 Canterbury Rd,Heathmont,VIC,3135,268 Canterbury Rd.Heathmont.VIC.3135,-37.8326858,145.2351997,,,,,,,,,
Religious Organisations,Presentation Sisters Convent,,Myrtleford,VIC,3737,.Myrtleford.VIC.3737,-36.5533215,146.724543,,,,,,,,,
Religious Organisations,Prison Fellowship Of Australia - WA Council,Unit 3/ 436 Lord St,Mt Lawley,WA,6050,Unit 3/ 436 Lord St.Mt Lawley.WA.6050,-31.938645,115.8775682,,,,,,35 550 201 911,Active,Trading Name,99% ABN Accuracy
Religious Organisations,Purpose Living City Church,"Melbourne High School, T 29, Alexandra Ave",South Yarra,VIC,3141,"Melbourne High School, T 29, Alexandra Ave.South Yarra.VIC.3141",-37.8296188,144.9868789,,,,,,,,,
Religious Organisations,Quakers (Religious Society of Friends),14 Desaumarez St,Kensington Park,SA,5068,14 Desaumarez St.Kensington Park.SA.5068,-34.9217416,138.6578594,,,,,,,,,
Religious Organisations,Redemption Churches,,suppressed,suppressed,,.suppressed.suppressed.,,,,Truth@RedemptionChurches.com,,,,,,,
Religious Organisations,Riverview Bible College,1 Thorogood St,Burswood,WA,6100,1 Thorogood St.Burswood.WA.6100,-31.9664187,115.8936707,,,,,,,,,
Religious Organisations,Salesians of Don Bosco,1A Ventnor St,Chadstone,VIC,3148,1A Ventnor St.Chadstone.VIC.3148,-37.8902687,145.0985884,,,,,,,,,
Religious Organisations,Salesians of Don Bosco,Lysterfield Rd,Lysterfield,VIC,3156,Lysterfield Rd.Lysterfield.VIC.3156,-37.9164421,145.299905,,,,,,,,,
Religious Organisations,Salvation Army Corps The,70 Henna St,Warrnambool,VIC,3280,70 Henna St.Warrnambool.VIC.3280,-38.3791485,142.4782361,,,,,,,,,
Religious Organisations,Salvos Ferntree Gully,3/ 1841 Ferntree Gully Rd,Mountain Gate,VIC,3156,3/ 1841 Ferntree Gully Rd.Mountain Gate.VIC.3156,-37.8830794,145.2710659,,,http://www.salvationarmy.org.au,,,,,,
Religious Organisations,Scripture Union In N.T.,,suppressed,suppressed,,.suppressed.suppressed.,,,,info@sunt.org.au,http://sunt.org.au,,,,,,
Religious Organisations,Seventh Day Adventist Church (Sale),53 Stawell St,Sale,VIC,3850,53 Stawell St.Sale.VIC.3850,-38.1029685,147.0644679,,,,,,,,,
Religious Organisations,Seventh Day Adventists Churches,101 Lava St,Warrnambool,VIC,3280,101 Lava St.Warrnambool.VIC.3280,-38.3826427,142.4860668,,,,,,,,,
Religious Organisations,Seventh Day Adventists Churches,71 King St,Hamilton,VIC,3300,71 King St.Hamilton.VIC.3300,-37.7304953,142.0127802,,,,,,,,,
Religious Organisations,Seventh Day Adventists Churches,85 Cape Nelson Rd,Portland,VIC,3305,85 Cape Nelson Rd.Portland.VIC.3305,-38.3628608,141.6041979,,,,,,,,,
Religious Organisations,Sikh Cultural Society of Victoria The,344 Hume Hwy,Craigieburn,VIC,3064,344 Hume Hwy.Craigieburn.VIC.3064,-37.6128133,144.9475039,,,,,,,,,
Religious Organisations,Sikh Society Of South Australia Inc,10 Mt Barker Rd,Glen Osmond,SA,5064,10 Mt Barker Rd.Glen Osmond.SA.5064,-34.9636077,138.6450924,,,,,,87 775 890 155,Active,Entity Name,99% ABN Accuracy
Religious Organisations,Silver City CRC,,suppressed,suppressed,,.suppressed.suppressed.,,,,,,,,,,,
Religious Organisations,Sirius USEIT,1 Inez Ave,Eltham,VIC,3095,1 Inez Ave.Eltham.VIC.3095,-37.7102348,145.1415282,,,www.siriususeit.com/cp.html,,,,,,
Religious Organisations,Slavic Gospel Association,351 Princes Hwy,Noble Park,VIC,3174,351 Princes Hwy.Noble Park.VIC.3174,-37.9644458,145.1908639,,,,,,31 731 714 749,Active,Entity Name,99% ABN Accuracy
Religious Organisations,Soul Care Industries,,Ocean Grove,VIC,3226,.Ocean Grove.VIC.3226,-38.2573292,144.5382417,,,,,,,,,
Religious Organisations,Southland Harvest Fellowship,Sandor's Motor Inn / 179 Deakin Ave,Mildura,VIC,3500,Sandor's Motor Inn / 179 Deakin Ave.Mildura.VIC.3500,-34.1900583,142.1557745,,,,,,41 970 147 426,Active,Entity Name,99% ABN Accuracy
Religious Organisations,Spiritualist Church & Psychic Research,,Moonah,TAS,7009,.Moonah.TAS.7009,-42.8462562,147.2945822,,,,,,,,,
Religious Organisations,St Anthonys Coptic Orthodox Monastery,,Heathcote,VIC,3523,.Heathcote.VIC.3523,-36.9147151,144.7006992,,,,,,,,,
Religious Organisations,St Columbans Mission Priests Residence,69 Woodland St,Essendon North,VIC,3041,69 Woodland St.Essendon North.VIC.3041,-37.7432131,144.9227742,,,,,,,,,
Religious Organisations,St Joseph's Times Of Mass & Reconciliation,Cnr Macquarrie & Harrington Strs,Hobart,TAS,7000,Cnr Macquarrie & Harrington Strs.Hobart.TAS.7000,-42.8855987,147.3264888,,,,,,,,,
Religious Organisations,St Marys House Of Welcome,165 Brunswick St,Fitzroy,VIC,3065,165 Brunswick St.Fitzroy.VIC.3065,-37.802578,144.9775239,,,,,,54 050 278 754,Active,Entity Name,99% ABN Accuracy
Religious Organisations,St Matthew's Prahran,157A High St,Prahran,VIC,3181,157A High St.Prahran.VIC.3181,-37.8513966,144.9927499,,info@stmatts.com.au,Visit Our Website,,,,,,
Religious Organisations,St Vincent De Paul Society Family Centre,7 Doswell Tce,Kadina,SA,5554,7 Doswell Tce.Kadina.SA.5554,-33.9611079,137.7120903,,,,,,,,,
Religious Organisations,Subud Spiritual Association,222 Shepperton Rd,East Victoria Park,WA,6101,222 Shepperton Rd.East Victoria Park.WA.6101,-31.9828523,115.9068616,,,,,,,,,
Religious Organisations,Sukyo Mahikari Adelaide,,Adelaide,SA,5000,.Adelaide.SA.5000,-34.9328294,138.6038129,,,,,,,,,
Religious Organisations,Sukyo Mahikari Hobart,3rd Floor Biggins Block 67 Letitia St,North Hobart,TAS,7000,3rd Floor Biggins Block 67 Letitia St.North Hobart.TAS.7000,-42.8683951,147.31992,,,,,,,,,
Religious Organisations,Sukyo Mahikari Melbourne,19 Garden Rd,Camberwell,VIC,3124,19 Garden Rd.Camberwell.VIC.3124,-37.843591,145.0917686,,,,,,,,,
Religious Organisations,Swan Hill Presbyterian Church,325 Campbell St,Swan Hill,VIC,3585,325 Campbell St.Swan Hill.VIC.3585,-35.3433672,143.5610484,,pastormiles5@gmail.com,,,,89 161 075 037,Active,Entity Name,99% ABN Accuracy
Religious Organisations,Tashs Tarot Reading,,Cobram,VIC,3644,.Cobram.VIC.3644,-35.919227,145.6395916,,tashstarot@hotmail.com,http://tashstarotcards.webs.com,,,,,,
Religious Organisations,Temple Society Australia,152 Tucker Rd,Bentleigh,VIC,3204,152 Tucker Rd.Bentleigh.VIC.3204,-37.9196492,145.0516416,,,,,,98 780 927 092,Active,Entity Name,99% ABN Accuracy
Religious Organisations,The Emissaries (S.A.) Inc,Riverdell Clifford Rd,Hillier,SA,5116,Riverdell Clifford Rd.Hillier.SA.5116,-34.6156311,138.7158813,,,,,,83 652 750 227,Active,Entity Name,99% ABN Accuracy
Religious Organisations,The Gideons International Australia,44 Clifton St,Blair Athol,SA,5084,44 Clifton St.Blair Athol.SA.5084,-34.865276,138.5981583,,,,,,,,,
Religious Organisations,The Potter's House Christian Church - Maylands,181 Guildford Rd,Maylands,WA,6051,181 Guildford Rd.Maylands.WA.6051,-31.9302925,115.8929083,,admin@pottershousemaylands.com,http://www.pottershousemaylands.com,,,,,,
Religious Organisations,The Potters House Christian Church Thomastown,1 Austarc Ave,Thomastown,VIC,3074,1 Austarc Ave.Thomastown.VIC.3074,-37.6866912,145.0100351,,ttownphcf@hotmail.com,http://www.pottershousethomastown.com,,,,,,
Religious Organisations,The Salvation Army Crossroads West,333 William St,Perth,WA,6000,333 William St.Perth.WA.6000,-31.9456792,115.8611412,,,,,,,,,
Religious Organisations,The Wellspring Centre Incorporated,Unit 63 10 Y St,Ashburton,VIC,3147,Unit 63 10 Y St.Ashburton.VIC.3147,-37.8619911,145.0791706,,info@wellspringcentre.org.au,http://www.wellspringcentre.org.au,,,,,,
Religious Organisations,Theosophical Fellowship Ltd The,523 Centre Rd,Bentleigh,VIC,3204,523 Centre Rd.Bentleigh.VIC.3204,-37.919127,145.0462799,,,,,,,,,
Religious Organisations,Trinity St. Nicholas Russian Greek-Catholic Church,72 Hotham St,St Kilda East,VIC,3183,72 Hotham St.St Kilda East.VIC.3183,-37.8662615,145.0002991,,vexillaregis@hotmail.com,http://www.stnich.org,,,,,,
Religious Organisations,Unitarian Community of Victoria,,Melbourne,VIC,3000,.Melbourne.VIC.3000,-37.8152065,144.963937,,,,,,,,,
Religious Organisations,Uniting Church in Australia Ferntree Gully,6 The Avenue,Ferntree Gully,VIC,3156,6 The Avenue.Ferntree Gully.VIC.3156,-37.8827117,145.2935723,,ftg.uca@gmail.com,http://ferntreegullyuca.wordpress.com/,,,,,,
Religious Organisations,Wangaratta Community Church,4-6 Docker St,Wangaratta,VIC,3677,4-6 Docker St.Wangaratta.VIC.3677,-36.3547792,146.3227676,,korot4@bigpond.com,https://www.facebook.com/pages/Wangaratta-Community-Church/258961842094,,,99 081 936 629,Cancelled,Trading Name,99% ABN Accuracy
Religious Organisations,Waverley Christian Fellowship,1248 High Street Rd,Wantirna South,VIC,3152,1248 High Street Rd.Wantirna South.VIC.3152,-37.8801772,145.21484,,,,,,89 277 942 075,Active,Entity Name (Historic),99% ABN Accuracy
Religious Organisations,Weightlifters Prophetic,,Busselton,WA,6280,.Busselton.WA.6280,-33.6516465,115.3473335,,,,,,15 484 537 060,Active,Business Name,99% ABN Accuracy
Religious Organisations,Westpoint City Church Inc,Unit 1/ 25 Finance Pl,Malaga,WA,6090,Unit 1/ 25 Finance Pl.Malaga.WA.6090,-31.8537561,115.8959711,,,,,,43 482 539 423,Active,Entity Name,99% ABN Accuracy
Religious Organisations,Willunga Uniting Church,St Jude St,Willunga,SA,5172,St Jude St.Willunga.SA.5172,-35.2753567,138.5570983,,,,,,84 876 420 133,Active,Entity Name,99% ABN Accuracy
Religious Organisations,World Apostolate of Fatima (Fatima Marian Centre),,Murrumbeena,VIC,3163,.Murrumbeena.VIC.3163,-37.8978307,145.070895,,,,,,,,,
Religious Organisations,"Zen Buddhist Community, Jikishoan",,Footscray,VIC,3011,.Footscray.VIC.3011,-37.7988987,144.892357,,,,,,,,,
Religious Organisations,Zionist Federation Of Aust,,Caulfield North,VIC,3161,.Caulfield North.VIC.3161,-37.8712631,145.0190242,,,,,,,,,
Religious Organisations,Ace Global Ministries,4- 22 Showground Rd,Castle Hill,NSW,2154,4- 22 Showground Rd.Castle Hill.NSW.2154,-33.7322113,151.0021031,,,,,,90 647 846 691,Active,Entity Name (Historic),25% ABN Accuracy
Religious Organisations,Adventist Development & Relief Agency,146 Fox Valley Rd,Wahroonga,NSW,2076,146 Fox Valley Rd.Wahroonga.NSW.2076,-33.732193,151.102483,,,,,,13 104 553 808,Active,Business Name,25% ABN Accuracy
Religious Organisations,Alan Walker College Of Evangelism,6 Lincluden Pl,North Parramatta,NSW,2151,6 Lincluden Pl.North Parramatta.NSW.2151,-33.7938417,151.0190046,,,,,,28 299 455 234,Active,Entity Name,25% ABN Accuracy
Religious Organisations,Al-Zahra Muslim Womens Association,21 Firth St,Arncliffe,NSW,2205,21 Firth St.Arncliffe.NSW.2205,-33.9366791,151.1465438,,,,,,84 136 423 269,Active,Entity Name,25% ABN Accuracy
Religious Organisations,AMOS Australian Mission Outreach Support,75 Morris Rd,Rothwell,QLD,4022,75 Morris Rd.Rothwell.QLD.4022,-27.2119514,153.0612146,,,,,,30 093 967 287,Active,Entity Name,25% ABN Accuracy
Religious Organisations,Anglican Board Of Mission Australia,91 Bathurst St,Sydney,NSW,2000,91 Bathurst St.Sydney.NSW.2000,-33.8744245,151.205441,,,,,,18 097 944 717,Active,Entity Name,25% ABN Accuracy
Religious Organisations,Anglican Home Mission Society,45 Hunter St,Parramatta,NSW,2150,45 Hunter St.Parramatta.NSW.2150,-33.8160313,151.0020877,,,,,,88 851 368 006,Active,Entity Name (Historic),25% ABN Accuracy
Religious Organisations,Anglican Media Council,St Andrew's House Sydney Sq,Sydney,NSW,2000,St Andrew's House Sydney Sq.Sydney.NSW.2000,-33.8741229,151.2057103,,,,,,26 776 497 877,Active,Entity Name,25% ABN Accuracy
Religious Organisations,Anglican Retirement Villages,Lvl 2/ 62 Norwest Blv,Baulkham Hills,NSW,2153,Lvl 2/ 62 Norwest Blv.Baulkham Hills.NSW.2153,-33.7367993,150.9583734,,,,,,39 922 848 563,Active,Entity Name (Historic),25% ABN Accuracy
Religious Organisations,AOG Burdekin Community Church,International Dr,Ayr,QLD,4807,International Dr.Ayr.QLD.4807,-19.5744451,147.4066109,,,,,,21 393 756 239,Active,Entity Name,25% ABN Accuracy
Religious Organisations,Apostolic Church Australia,46 Brae St,Inverell,NSW,2360,46 Brae St.Inverell.NSW.2360,-29.7691958,151.1083951,,,,,,24 004 350 798,Active,Entity Name,25% ABN Accuracy
Religious Organisations,Australian Buddhist Mission,Ross Rd,Peats Ridge,NSW,2250,Ross Rd.Peats Ridge.NSW.2250,-33.3663866,151.2363134,,,,,,87 746 086 345,Active,Entity Name,25% ABN Accuracy
Religious Organisations,Australian Federation of Islamic Councils,932 Bourke St,Zetland,NSW,2017,932 Bourke St.Zetland.NSW.2017,-33.9043001,151.2056112,,,muslimsaustralia.com.au,,,37 002 757 155,Active,Entity Name,25% ABN Accuracy
Religious Organisations,Australian Navigators Ltd,29a/ 5 Inglewood Pl,Baulkham Hills,NSW,2153,29a/ 5 Inglewood Pl.Baulkham Hills.NSW.2153,-33.7349879,150.9572057,,,,,,26 001 294 677,Active,Entity Name,25% ABN Accuracy
Religious Organisations,Bahai Community,,Wyong,NSW,2259,.Wyong.NSW.2259,-33.2843475,151.4249427,,,,,,54 858 239 715,Active,Entity Name,25% ABN Accuracy
Religious Organisations,Baha'i Community,173 Mona Vale Rd,Ingleside,NSW,2101,173 Mona Vale Rd.Ingleside.NSW.2101,-33.6839807,151.2585467,,,,,,54 858 239 715,Active,Entity Name,25% ABN Accuracy
Religious Organisations,Benedictine Monks,121 Arcadia Rd,Arcadia,NSW,2159,121 Arcadia Rd.Arcadia.NSW.2159,-33.619439,151.0494467,,,,,,43 955 652 831,Active,Entity Name,25% ABN Accuracy
Religious Organisations,Bible Education Centre Inc,Shop 1/ 76 Bathurst St,Liverpool,NSW,2170,Shop 1/ 76 Bathurst St.Liverpool.NSW.2170,-33.923644,150.921363,,,,,,61 045 749 638,Active,Entity Name,25% ABN Accuracy
Religious Organisations,Blue Mountains City Church,172 Rusden Rd,Mt Riverview,NSW,2774,172 Rusden Rd.Mt Riverview.NSW.2774,-33.7316755,150.6295524,,,,,,24 132 815 816,Active,Entity Name,25% ABN Accuracy
Religious Organisations,Blue Mountains City Church Inc,172 Rusden Rd,Mt Riverview,NSW,2774,172 Rusden Rd.Mt Riverview.NSW.2774,-33.7316755,150.6295524,,office@bmcitychurch.com,Visit our website,,,24 132 815 816,Active,Entity Name,25% ABN Accuracy
Religious Organisations,Brisbane Anglican Maori Mission Inc,At The Rear Of 338 Algester St,Algester,QLD,4115,At The Rear Of 338 Algester St.Algester.QLD.4115,-27.6179683,153.0351553,,info@brisbanemaorimission.com.au,http://www.brisbanemaorimission.com.au,,,89 542 552 399,Active,Entity Name,25% ABN Accuracy
Religious Organisations,Buddhist Council of New South Wales,25/ 56-62 Chandos St,St Leonards,NSW,2065,25/ 56-62 Chandos St.St Leonards.NSW.2065,-33.8218108,151.1978923,,,,,,18 550 218 989,Active,Entity Name,25% ABN Accuracy
Religious Organisations,Buena Vista Opportunity Shop,195 Peisley St,Orange,NSW,2800,195 Peisley St.Orange.NSW.2800,-33.2845405,149.103234,,,,,,71 050 057 620,Active,Business Name,25% ABN Accuracy
Religious Organisations,Bush Church Aid Society,Level 7/ 37 York St,Sydney,NSW,2000,Level 7/ 37 York St.Sydney.NSW.2000,-33.866438,151.2055543,,,,,,38 434 490 314,Active,Entity Name,25% ABN Accuracy
Religious Organisations,Bush Church Aid Society,9 Fenimore St,Wishart,QLD,4122,9 Fenimore St.Wishart.QLD.4122,-27.5635022,153.0904935,,,www.bushchurchaid.com.au,,,38 434 490 314,Active,Entity Name,25% ABN Accuracy
Religious Organisations,C3 Church Monash,Livingston Ave,Kambah,ACT,2902,Livingston Ave.Kambah.ACT.2902,-35.3881094,149.0810031,,,www.c3monash.org.au,,,73 794 432 277,Active,Entity Name,25% ABN Accuracy
Religious Organisations,Catholic Education Office Archdiocese Of Sydney Central Office,38 Renwick St,Leichhardt,NSW,2040,38 Renwick St.Leichhardt.NSW.2040,-33.8869459,151.1565243,,,,,,82 780 246 140,Active,Entity Name (Historic),25% ABN Accuracy
Religious Organisations,"Catholic Enquiry Centre, National Faith Promotion",80 Albion St,Surry Hills,NSW,2010,80 Albion St.Surry Hills.NSW.2010,-33.8828131,151.2114053,,,,,,50 726 817 672,Active,Entity Name,25% ABN Accuracy
Religious Organisations,Catholic Resource Centre,Gilmour St,Kelso,NSW,2795,Gilmour St.Kelso.NSW.2795,-33.4075224,149.5998707,,,,,,90 582 344 998,Active,Entity Name,25% ABN Accuracy
Religious Organisations,CBD Chabad Centre,Lvl 4/ 199 Clarence St,Sydney,NSW,2000,Lvl 4/ 199 Clarence St.Sydney.NSW.2000,-33.8695924,151.2051103,,,,,,56 123 198 171,Active,Entity Name,25% ABN Accuracy
Religious Organisations,Centre For Multi Cultural Pastoral Care,333 Given Tce,Paddington,QLD,4064,333 Given Tce.Paddington.QLD.4064,-27.4620343,152.9998116,,,,,,25 328 758 007,Active,DGR Name (Historic),25% ABN Accuracy
Religious Organisations,Challenge Ministries,20 Malvern Ave,Croydon,NSW,2132,20 Malvern Ave.Croydon.NSW.2132,-33.8852569,151.1126725,,,,,,23 959 475 978,Active,Entity Name,25% ABN Accuracy
Religious Organisations,Chinese Catholic Community,2 Waters St,Rapid Creek,NT,810,2 Waters St.Rapid Creek.NT.810,-12.38662,130.859193,,,,,,33 023 668 108,Active,Entity Name,25% ABN Accuracy
Religious Organisations,Christ For All Nations,Unit 13/ 79 Lower West Burleigh Rd,Burleigh Waters,QLD,4220,Unit 13/ 79 Lower West Burleigh Rd.Burleigh Waters.QLD.4220,-28.0965528,153.443222,,,,,,61 120 404 444,Active,Entity Name,25% ABN Accuracy
Religious Organisations,Christadelphian Bible School,Bible Society 2 Stilling St,Rathmines,NSW,2283,Bible Society 2 Stilling St.Rathmines.NSW.2283,-33.0402305,151.5965903,,,www.rathminesbibleschool.com,,,94 001 286 424,Active,Entity Name,25% ABN Accuracy
Religious Organisations,Christian Brothers Provincial Administration,2 Thames St,Balmain,NSW,2041,2 Thames St.Balmain.NSW.2041,-33.8566259,151.1836066,,,,,,64 066 939 786,Active,Other Name,25% ABN Accuracy
Religious Organisations,Christian Centre,Dutton St,Normanton,QLD,4890,Dutton St.Normanton.QLD.4890,-17.6732463,141.0751657,,,,,,43 095 955 016,Active,Entity Name,25% ABN Accuracy
Religious Organisations,Christian Heritage Ministries Australia,156 Brighton Tce,Brighton,QLD,4017,156 Brighton Tce.Brighton.QLD.4017,-27.3074038,153.0631676,,,,,,21 011 059 135,Active,Entity Name,25% ABN Accuracy
Religious Organisations,Christian Media Services Inc,165 Shaftesbury Rd,Eastwood,NSW,2122,165 Shaftesbury Rd.Eastwood.NSW.2122,-33.7913594,151.0772732,,,,,,91 859 905 010,Active,Entity Name,25% ABN Accuracy
Religious Organisations,Christian Science Church,273 North Quay,Brisbane,QLD,4000,273 North Quay.Brisbane.QLD.4000,-27.4670559,153.0168606,,,,,,78 110 215 930,Active,Trading Name,25% ABN Accuracy
Religious Organisations,Christian Science Church,Lot 392 Woodanga Dr,Highvale,QLD,4520,Lot 392 Woodanga Dr.Highvale.QLD.4520,-27.3723304,152.8210887,,,,,,78 110 215 930,Active,Trading Name,25% ABN Accuracy
Religious Organisations,Christian Youth Centre,7 Banksia Crst,Scotts Head,NSW,2447,7 Banksia Crst.Scotts Head.NSW.2447,-30.7438609,152.9901227,,,,,,55 998 219 869,Active,Entity Name,25% ABN Accuracy
Religious Organisations,Couples for Christ,93-97 Main St,Blacktown,NSW,2148,93-97 Main St.Blacktown.NSW.2148,-33.770353,150.9100874,,,,,,42 091 596 897,Active,Trading Name,25% ABN Accuracy
Religious Organisations,Covenant Players Inc,10 Cliff Rd,Freemans Reach,NSW,2756,10 Cliff Rd.Freemans Reach.NSW.2756,-33.5662579,150.77421,,,,,,32 365 780 908,Active,Entity Name,25% ABN Accuracy
Religious Organisations,Croatian Australian Welfare Centre,86- 90 Brisbane St,St Johns Park,NSW,2176,86- 90 Brisbane St.St Johns Park.NSW.2176,-33.8771679,150.9010556,,,,,,59 615 184 150,Active,Entity Name,25% ABN Accuracy
Religious Organisations,Dominican Sisters,3 54 Kirrang St,Beverly Hills,NSW,2209,3 54 Kirrang St.Beverly Hills.NSW.2209,-33.9434935,151.0824021,,,,,,82 464 856 272,Active,Entity Name (Historic),25% ABN Accuracy
Religious Organisations,Dutch Australian Cultural Centre,85 Market St,Smithfield,NSW,2164,85 Market St.Smithfield.NSW.2164,-33.8472515,150.933474,,,http://www.dacc.com.au/,,,94 002 727 862,Active,Entity Name,25% ABN Accuracy
Religious Organisations,Educational Centre For Christian Spirituality,14 Frances St,Randwick,NSW,2031,14 Frances St.Randwick.NSW.2031,-33.9103909,151.2397984,,,,,,27 001 712 572,Active,Entity Name,25% ABN Accuracy
Religious Organisations,Evangelical Sisterhood Of Mary,30 Taylor Pl,Theresa Park,NSW,2570,30 Taylor Pl.Theresa Park.NSW.2570,-34.0075468,150.6420951,,,,,,42 001 782 305,Active,Entity Name,25% ABN Accuracy
Religious Organisations,Every Home For Christ,1 The Strand,Penshurst,NSW,2222,1 The Strand.Penshurst.NSW.2222,-33.9664568,151.0881924,,,,,,88 001 276 240,Active,Entity Name (Historic),25% ABN Accuracy
Religious Organisations,Faith in Christ Fellowship Macarthur,35 Lincoln St,Minto,NSW,2566,35 Lincoln St.Minto.NSW.2566,-34.0246054,150.8421739,,,http://www.fcfmacarthur.org.au,,,64 733 011 729,Active,Entity Name,25% ABN Accuracy
Religious Organisations,Far East Broadcasting Co (Aust),Cnr Kingsway and Willarong Rd,Caringbah,NSW,2229,Cnr Kingsway and Willarong Rd.Caringbah.NSW.2229,-34.0401322,151.1203954,,,,,,68 000 509 517,Active,Entity Name,25% ABN Accuracy
Religious Organisations,Focus Military Ministry,59 Dickson Chambers St,Dickson,ACT,2602,59 Dickson Chambers St.Dickson.ACT.2602,-35.2502635,149.1392721,,,http://www.focusmilitary.org.au,,,97 342 707 086,Active,Entity Name,25% ABN Accuracy
Religious Organisations,Franciscan Friars,14 Albert St,Edgecliff,NSW,2027,14 Albert St.Edgecliff.NSW.2027,-33.8806812,151.2391836,,,,,,75 876 383 237,Active,Trading Name (Historic),25% ABN Accuracy
Religious Organisations,Franciscan Friars,311 Merrylands Rd,Merrylands,NSW,2160,311 Merrylands Rd.Merrylands.NSW.2160,-33.8351451,150.9841268,,,,,,75 876 383 237,Active,Trading Name (Historic),25% ABN Accuracy
Religious Organisations,Franciscan Friars,15 Prospect Rd,Summer Hill,NSW,2130,15 Prospect Rd.Summer Hill.NSW.2130,-33.8912145,151.1320304,,,,,,75 876 383 237,Active,Trading Name (Historic),25% ABN Accuracy
Religious Organisations,Franciscan Friars,70 Douglas Rd,Blacktown,NSW,2148,70 Douglas Rd.Blacktown.NSW.2148,-33.7829367,150.8843683,,,,,,75 876 383 237,Active,Trading Name (Historic),25% ABN Accuracy
Religious Organisations,Gateway Family Church,1374 Old Cleveland Rd,Carindale,QLD,4152,1374 Old Cleveland Rd.Carindale.QLD.4152,-27.5021515,153.1233675,,,,,,91 531 619 919,Active,Trading Name,25% ABN Accuracy
Religious Organisations,Glenorie Community Church,1507 Old Northern Rd,Glenorie,NSW,2157,1507 Old Northern Rd.Glenorie.NSW.2157,-33.608971,151.0191411,,,,,,12 393 818 704,Active,Entity Name,25% ABN Accuracy
Religious Organisations,God's Power Ministries,Unit 3/ 10 Clarke St,Guildford,NSW,2161,Unit 3/ 10 Clarke St.Guildford.NSW.2161,-33.8606633,150.9759863,,,,,,95 650 466 810,Active,Entity Name,25% ABN Accuracy
Religious Organisations,Gospel Light Baptist Church,8 Steffensen St,Bundaberg,QLD,4670,8 Steffensen St.Bundaberg.QLD.4670,-24.8790856,152.3338501,,gospellightbcbundy@gmail.com,,,,99 768 517 092,Active,Entity Name,25% ABN Accuracy
Religious Organisations,Grace City Church,937 Bourke St,Waterloo,NSW,2017,937 Bourke St.Waterloo.NSW.2017,-33.9016424,151.2086154,,info@gracecitychurch.com.au,http://www.gracecity.com.au,,,37 194 515 292,Active,Entity Name,25% ABN Accuracy
Religious Organisations,Harvest Bible Church,86 Carthage St,Tamworth,NSW,2340,86 Carthage St.Tamworth.NSW.2340,-31.0857028,150.9321658,,contact@harvestbiblechurch.org.au,www.harvestbiblechurch.org.au/,,,42 951 498 719,Active,Entity Name,25% ABN Accuracy
Religious Organisations,Hindu Society Of Qld Inc,Gayatri Mandir 178 Lyndhurst Rd,Boondall,QLD,4034,Gayatri Mandir 178 Lyndhurst Rd.Boondall.QLD.4034,-27.3477817,153.0616256,,,,,,62 515 008 806,Active,Entity Name,25% ABN Accuracy
Religious Organisations,Holy Family Education Centre,1 West St,Lewisham,NSW,2049,1 West St.Lewisham.NSW.2049,-33.8924018,151.1502192,,,,,,73 737 517 017,Active,Entity Name,25% ABN Accuracy
Religious Organisations,Holy Spirit Association,3 Calder Rd,Darlington,NSW,2008,3 Calder Rd.Darlington.NSW.2008,-33.8901928,151.1955245,,,,,,34 005 131 171,Active,Entity Name,25% ABN Accuracy
Religious Organisations,Initiatives of Change,10 Dooley Pl,Curtin,ACT,2605,10 Dooley Pl.Curtin.ACT.2605,-35.3209546,149.0742454,,,,,,22 004 350 789,Active,Entity Name,25% ABN Accuracy
Religious Organisations,Islamic Foundation For Education & Welfare,206 Humphries Rd,Bonnyrigg,NSW,2177,206 Humphries Rd.Bonnyrigg.NSW.2177,-33.891931,150.900025,,,,,,23 878 124 612,Active,Entity Name,25% ABN Accuracy
Religious Organisations,Jericho Road Presbyterian Social Services,168 Chalmers St,Surry Hills,NSW,2010,168 Chalmers St.Surry Hills.NSW.2010,-33.8883997,151.2066292,,info@jerichoroad.org.au,www.jerichoroad.org.au/,,,47 776 809 174,Active,Entity Name,25% ABN Accuracy
Religious Organisations,Joyce Meyer Ministries Pty Ltd,2 Devlan St,Mansfield,QLD,4122,2 Devlan St.Mansfield.QLD.4122,-27.5326069,153.0963801,,,www.joycemeyer.org/,,,73 075 343 485,Active,Entity Name,25% ABN Accuracy
Religious Organisations,Khmer Buddhist Society Of Qld Inc,44 Third Ave,Marsden,QLD,4132,44 Third Ave.Marsden.QLD.4132,-27.6765812,153.0879402,,,,,,63 448 367 670,Active,Entity Name,25% ABN Accuracy
Religious Organisations,Kwan Um School Of Zen,15 Flaggy Creek Rd,Mt Crosby,QLD,4306,15 Flaggy Creek Rd.Mt Crosby.QLD.4306,-27.522573,152.8361867,,,,,,79 623 937 580,Active,Entity Name,25% ABN Accuracy
Religious Organisations,Life Ministries,72 Queens Rd,Lawson,NSW,2783,72 Queens Rd.Lawson.NSW.2783,-33.7101783,150.4440781,,,,,,88 982 014 526,Active,Entity Name,25% ABN Accuracy
Religious Organisations,Living Waters Hope Centre,125 Serpentine Rd,Terrigal,NSW,2260,125 Serpentine Rd.Terrigal.NSW.2260,-33.4336051,151.4136962,,,,,,23 586 504 626,Active,Entity Name,25% ABN Accuracy
Religious Organisations,LOGAN VILLAGE CHRISTIAN FAMILY,30 Wharf St,Logan Village,QLD,4207,30 Wharf St.Logan Village.QLD.4207,-27.7677724,153.1053473,,lvchristianfamily@gmail.com,,,,33 461 446 643,Active,Entity Name,25% ABN Accuracy
Religious Organisations,Mandalay Pastoral Co.,Bundanoon Rd,Exeter,NSW,2579,Bundanoon Rd.Exeter.NSW.2579,-34.6315169,150.3205465,,,,,,95 003 598 249,Active,Entity Name,25% ABN Accuracy
Religious Organisations,Maori Anglican Fellowship,587 Elizabeth St,Redfern,NSW,2016,587 Elizabeth St.Redfern.NSW.2016,-33.8907424,151.2074666,,,,,,30 090 633 117,Active,Entity Name (Historic),25% ABN Accuracy
Religious Organisations,Maria-Kinder,14 Sommerville St,Wentworth Falls,NSW,2782,14 Sommerville St.Wentworth Falls.NSW.2782,-33.723992,150.3699372,,,,,,62 651 544 291,Active,Entity Name,25% ABN Accuracy
Religious Organisations,Marist Fathers,"""Villawood"" 1 Mary St",Hunters Hill,NSW,2110,"""Villawood"" 1 Mary St.Hunters Hill.NSW.2110",-33.8351523,151.1380109,,,,,,56 085 896 500,Active,Trading Name,25% ABN Accuracy
Religious Organisations,Marist Fathers,"""Parish"" 3a Mary St",Hunters Hill,NSW,2110,"""Parish"" 3a Mary St.Hunters Hill.NSW.2110",-33.8333901,151.1378392,,,,,,56 085 896 500,Active,Trading Name,25% ABN Accuracy
Religious Organisations,Mission Without Borders,10 Stubbs St,Auburn,NSW,2144,10 Stubbs St.Auburn.NSW.2144,-33.8401131,151.0358435,,,,,,38 000 827 798,Active,Entity Name,25% ABN Accuracy
Religious Organisations,Missionaries Of Charity,105 Third St,Katherine,NT,850,105 Third St.Katherine.NT.850,-14.461209,132.264927,,,,,,48 874 356 825,Active,Entity Name (Historic),25% ABN Accuracy
Religious Organisations,Missionary Sisters Of Mary Queen Novitiate,200 William St,Granville,NSW,2142,200 William St.Granville.NSW.2142,-33.8344813,150.998716,,,,,,37 092 752 611,Active,Trading Name,25% ABN Accuracy
Religious Organisations,Multicultural Christian Fellowship Of Aust Incorp,2 Earhart Ct,Marrara,NT,812,2 Earhart Ct.Marrara.NT.812,-12.4074001,130.9131961,,cmangohig@yahoo.com,,101-200,1994,33 069 610 795,Active,Entity Name,25% ABN Accuracy
Religious Organisations,Mundubbera New Life Centre,32 Stuart Russell St,Mundubbera,QLD,4626,32 Stuart Russell St.Mundubbera.QLD.4626,-25.5908019,151.3005862,,,,,,33 087 065 502,Active,Trading Name,25% ABN Accuracy
Religious Organisations,Muslim Organisation Sunshine Coast Inc,,Maroochydore,QLD,4558,.Maroochydore.QLD.4558,-26.6520957,153.0826248,,,,,,22 031 206 810,Active,Entity Name,25% ABN Accuracy
Religious Organisations,New Apostolic Church,Cnr Queens Rd and Arch St,Kingston,QLD,4114,Cnr Queens Rd and Arch St.Kingston.QLD.4114,-27.6509917,153.1254865,,,,,,67 011 031 780,Active,Entity Name,25% ABN Accuracy
Religious Organisations,New Lambton Baptist Church,1 Longworth Ave,New Lambton,NSW,2305,1 Longworth Ave.New Lambton.NSW.2305,-32.9269916,151.7180804,,newlambtonbaptist@gmail.com,,,,69 568 699 164,Active,Other Name,25% ABN Accuracy
Religious Organisations,North Gate Church,Cnr Of Griffith Mc Donald Rd,Lavington,NSW,2641,Cnr Of Griffith Mc Donald Rd.Lavington.NSW.2641,-36.0432238,146.9363594,,,,,,49 718 295 102,Active,Entity Name (Historic),25% ABN Accuracy
Religious Organisations,Northside Church,64 Baddeley Cres,Spence,ACT,2615,64 Baddeley Cres.Spence.ACT.2615,-35.1995684,149.0655368,,info@northsidechurch.net.au,http://www.northsidechurch.net.au,,,70 428 791 616,Active,Entity Name,25% ABN Accuracy
Religious Organisations,O.A.C. Ministries,2 Bangalay St,Georges Hall,NSW,2198,2 Bangalay St.Georges Hall.NSW.2198,-33.9060777,150.9841723,,,,,,59 000 275 829,Active,Entity Name,25% ABN Accuracy
Religious Organisations,OAC Ministries Australia,6 Ingal St,Wishart,QLD,4122,6 Ingal St.Wishart.QLD.4122,-27.5545068,153.0928859,,,,,,59 000 275 829,Active,Entity Name,25% ABN Accuracy
Religious Organisations,Poor Clares Bethlehem Monastery,Narellan Rd,Campbelltown,NSW,2560,Narellan Rd.Campbelltown.NSW.2560,-34.0643903,150.7896887,,,,,,35 663 984 738,Active,Entity Name,25% ABN Accuracy
Religious Organisations,Potters House Christian Church,2 16 Randall St,Slacks Creek,QLD,4127,2 16 Randall St.Slacks Creek.QLD.4127,-27.6255144,153.1189502,,sreeves88@live.com.au,www.pottershouselogan.com.au,,,23 864 517 891,Active,Trading Name,25% ABN Accuracy
Religious Organisations,Presbyterian Church Blaxland,1 5A Wilson Way St,Blaxland,NSW,2774,1 5A Wilson Way St.Blaxland.NSW.2774,-33.7418564,150.6085974,,,,,,88 014 202 128,Active,Entity Name,25% ABN Accuracy
Religious Organisations,Queensland Christian Soccer Association,Brittain Park,Coopers Plains,QLD,4108,Brittain Park.Coopers Plains.QLD.4108,-27.5689028,153.0467691,,,http://www.qcsa.org.au,,,37 969 193 568,Active,Entity Name,25% ABN Accuracy
Religious Organisations,Queensland Mailbox Bible Club,131 Leybourne St,Chelmer,QLD,4068,131 Leybourne St.Chelmer.QLD.4068,-27.5166258,152.9839699,,,,,,95 421 049 456,Active,Entity Name,25% ABN Accuracy
Religious Organisations,Red Shield Defence Services,29 Falcon Crst,Condon,QLD,4815,29 Falcon Crst.Condon.QLD.4815,-19.3365309,146.7221436,,,,,,57 507 607 457,Active,DGR Name (Historic),25% ABN Accuracy
